code,parent_code,name,region_type,center_lat,center_lng
11,,서울특별시,si-do,37.56487638055266,126.97413944268415
11110,11,종로구,si-gun-gu,37.59909735872199,126.98613194378919
11110101,11110,청운동,eup-myeon-dong,37.589026361177524,126.96849739178043
11110102,11110,신교동,eup-myeon-dong,37.58443997392524,126.96768138420924
11110103,11110,궁정동,eup-myeon-dong,37.58490472104553,126.97239117462786
11110104,11110,효자동,eup-myeon-dong,37.58270160563704,126.97187980980084
11110105,11110,창성동,eup-myeon-dong,37.58057098058171,126.97234934177737
11110106,11110,통의동,eup-myeon-dong,37.57799676594817,126.9727058213769
11110107,11110,적선동,eup-myeon-dong,37.57528314095251,126.97392127488646
11110108,11110,통인동,eup-myeon-dong,37.57981550888792,126.97004794664059
11110109,11110,누상동,eup-myeon-dong,37.58023454257433,126.96235517972858
11110110,11110,누하동,eup-myeon-dong,37.57936039736319,126.96798823716075
11110111,11110,옥인동,eup-myeon-dong,37.583550521443854,126.9641763072342
11110112,11110,체부동,eup-myeon-dong,37.577860606449946,126.97102086977813
11110113,11110,필운동,eup-myeon-dong,37.57687777623824,126.96768734230197
11110114,11110,내자동,eup-myeon-dong,37.57527465504708,126.9718102500147
11110115,11110,사직동,eup-myeon-dong,37.57538181543057,126.96580903861243
11110116,11110,도렴동,eup-myeon-dong,37.57272254318963,126.97466173940052
11110117,11110,당주동,eup-myeon-dong,37.57157684900555,126.97380954897368
11110118,11110,내수동,eup-myeon-dong,37.57336454938161,126.97208503321832
11110119,11110,세종로,eup-myeon-dong,37.57948599650203,126.97698978699361
11110120,11110,신문로1가,eup-myeon-dong,37.57037081145937,126.97405642043107
11110121,11110,신문로2가,eup-myeon-dong,37.57102899748073,126.9692346346586
11110122,11110,청진동,eup-myeon-dong,37.57153388567613,126.98027763452251
11110123,11110,서린동,eup-myeon-dong,37.569499620096636,126.98029244335196
11110124,11110,수송동,eup-myeon-dong,37.57385814934358,126.98056348458461
11110125,11110,중학동,eup-myeon-dong,37.5751923492373,126.97993610451678
11110126,11110,종로1가,eup-myeon-dong,37.57069254497024,126.98031821165074
11110127,11110,공평동,eup-myeon-dong,37.571323016862834,126.98321590683229
11110128,11110,관훈동,eup-myeon-dong,37.57415628168732,126.98477951233943
11110129,11110,견지동,eup-myeon-dong,37.573732340063884,126.9830776880591
11110130,11110,와룡동,eup-myeon-dong,37.580911027953135,126.99272520345457
11110131,11110,권농동,eup-myeon-dong,37.57610595760008,126.9917372647596
11110132,11110,운니동,eup-myeon-dong,37.576389243915884,126.98829724430155
11110133,11110,익선동,eup-myeon-dong,37.57422960102716,126.98969245470488
11110134,11110,경운동,eup-myeon-dong,37.57524427789488,126.9863850864462
11110135,11110,관철동,eup-myeon-dong,37.569194579897925,126.98588875918452
11110136,11110,인사동,eup-myeon-dong,37.5720563323042,126.98593646970923
11110137,11110,낙원동,eup-myeon-dong,37.57255154957564,126.98860441070345
11110138,11110,종로2가,eup-myeon-dong,37.570759474008256,126.98628763466198
11110139,11110,팔판동,eup-myeon-dong,37.58272685543855,126.98056043924953
11110140,11110,삼청동,eup-myeon-dong,37.58987565525425,126.98136080737399
11110141,11110,안국동,eup-myeon-dong,37.57747405583767,126.98382765268431
11110142,11110,소격동,eup-myeon-dong,37.57978265222554,126.98099397309389
11110143,11110,화동,eup-myeon-dong,37.58068332011476,126.98259075119137
11110144,11110,사간동,eup-myeon-dong,37.577233348234884,126.98056103775357
11110145,11110,송현동,eup-myeon-dong,37.57704379145523,126.9819104459732
11110146,11110,가회동,eup-myeon-dong,37.582803677278065,126.98484466733215
11110147,11110,재동,eup-myeon-dong,37.57815665213941,126.98523456612803
11110148,11110,계동,eup-myeon-dong,37.58290205098462,126.986857039482
11110149,11110,원서동,eup-myeon-dong,37.58418014185801,126.9880665341195
11110150,11110,훈정동,eup-myeon-dong,37.5742165331946,126.9940520991158
11110151,11110,묘동,eup-myeon-dong,37.572549842895505,126.99182375402863
11110152,11110,봉익동,eup-myeon-dong,37.57237096771119,126.99299698224084
11110153,11110,돈의동,eup-myeon-dong,37.572029174011604,126.99062605372013
11110154,11110,장사동,eup-myeon-dong,37.56923436817914,126.99423266990462
11110155,11110,관수동,eup-myeon-dong,37.56905838629745,126.99043009070506
11110156,11110,종로3가,eup-myeon-dong,37.570379640066186,126.99237224368662
11110157,11110,인의동,eup-myeon-dong,37.57262706728706,126.99800204484279
11110158,11110,예지동,eup-myeon-dong,37.56950429180742,126.99844137390022
11110159,11110,원남동,eup-myeon-dong,37.575481615200644,126.99762783057545
11110160,11110,연지동,eup-myeon-dong,37.573743642644104,127.00010216381754
11110161,11110,종로4가,eup-myeon-dong,37.570688653467144,126.99795933946947
11110162,11110,효제동,eup-myeon-dong,37.57334017231326,127.00345352933724
11110163,11110,종로5가,eup-myeon-dong,37.57072843709108,127.00333170806974
11110164,11110,종로6가,eup-myeon-dong,37.57223952558343,127.00725626369969
11110165,11110,이화동,eup-myeon-dong,37.57732202221814,127.00545495308386
11110166,11110,연건동,eup-myeon-dong,37.57848590035501,126.99965719928761
11110167,11110,충신동,eup-myeon-dong,37.574763473885426,127.00590224107755
11110168,11110,동숭동,eup-myeon-dong,37.581605860832454,127.00515265717526
11110169,11110,혜화동,eup-myeon-dong,37.58781970940089,127.00230364104574
11110170,11110,명륜1가,eup-myeon-dong,37.58895123895271,126.99738664508754
11110171,11110,명륜2가,eup-myeon-dong,37.58461530431862,126.99915561210317
11110172,11110,명륜4가,eup-myeon-dong,37.58238832657946,126.99978776250764
11110173,11110,명륜3가,eup-myeon-dong,37.587307353932054,126.99305119705534
11110174,11110,창신동,eup-myeon-dong,37.57599897872801,127.01350726086292
11110175,11110,숭인동,eup-myeon-dong,37.576671538452494,127.01904961988537
11110176,11110,교남동,eup-myeon-dong,37.56843148236407,126.9644592691217
11110177,11110,평동,eup-myeon-dong,37.56767090137831,126.96681739525184
11110178,11110,송월동,eup-myeon-dong,37.57017777169543,126.96529066174301
11110179,11110,홍파동,eup-myeon-dong,37.57115696472413,126.9641360261089
11110180,11110,교북동,eup-myeon-dong,37.57142449292712,126.96128962476013
11110181,11110,행촌동,eup-myeon-dong,37.574483872563576,126.96263624804645
11110182,11110,구기동,eup-myeon-dong,37.617950061921306,126.96214345939055
11110183,11110,평창동,eup-myeon-dong,37.613964844225585,126.97428348661457
11110184,11110,부암동,eup-myeon-dong,37.593493931610936,126.96726735224459
11110185,11110,홍지동,eup-myeon-dong,37.60057757440506,126.95676666174344
11110186,11110,신영동,eup-myeon-dong,37.60305005607938,126.9617862876862
11110187,11110,무악동,eup-myeon-dong,37.57679116404997,126.9582116624536
11140,11,중구,si-gun-gu,37.557939871241885,126.99417336148036
11140101,11140,무교동,eup-myeon-dong,37.56805904921863,126.97885435385996
11140102,11140,다동,eup-myeon-dong,37.56787744474672,126.98117796745237
11140103,11140,태평로1가,eup-myeon-dong,37.56756374153496,126.97736754375218
11140104,11140,을지로1가,eup-myeon-dong,37.56590095683147,126.98055445713273
11140105,11140,을지로2가,eup-myeon-dong,37.56571250267322,126.98624368624279
11140106,11140,남대문로1가,eup-myeon-dong,37.567590345127726,126.98309539066467
11140107,11140,삼각동,eup-myeon-dong,37.567926207708126,126.98477598526047
11140108,11140,수하동,eup-myeon-dong,37.56741314398323,126.9846246517516
11140109,11140,장교동,eup-myeon-dong,37.56748004373937,126.98703914354152
11140110,11140,수표동,eup-myeon-dong,37.5674647038727,126.98941673673292
11140111,11140,소공동,eup-myeon-dong,37.56389455412945,126.9799711132564
11140112,11140,남창동,eup-myeon-dong,37.55806620535995,126.97757966274838
11140113,11140,북창동,eup-myeon-dong,37.56248418725818,126.97823279154967
11140114,11140,태평로2가,eup-myeon-dong,37.56323342479323,126.97638890545949
11140115,11140,남대문로2가,eup-myeon-dong,37.56386089674744,126.98202205979919
11140116,11140,남대문로3가,eup-myeon-dong,37.5616667966019,126.97942069280782
11140117,11140,남대문로4가,eup-myeon-dong,37.56069005653917,126.9754848721963
11140118,11140,남대문로5가,eup-myeon-dong,37.55636636235038,126.97628354189506
11140119,11140,봉래동1가,eup-myeon-dong,37.55890797488672,126.9729436703402
11140120,11140,봉래동2가,eup-myeon-dong,37.55674535844848,126.97132587809412
11140121,11140,회현동1가,eup-myeon-dong,37.55715541622763,126.98168253898908
11140122,11140,회현동2가,eup-myeon-dong,37.55851524927972,126.98274280376951
11140123,11140,회현동3가,eup-myeon-dong,37.56005749926656,126.98407548278007
11140124,11140,충무로1가,eup-myeon-dong,37.56102486933409,126.98262178319237
11140125,11140,충무로2가,eup-myeon-dong,37.56175350680017,126.9877274690204
11140126,11140,명동1가,eup-myeon-dong,37.5644501547131,126.98445283275373
11140127,11140,명동2가,eup-myeon-dong,37.56300848352419,126.98526978667674
11140128,11140,남산동1가,eup-myeon-dong,37.55917770875016,126.98470034109882
11140129,11140,남산동2가,eup-myeon-dong,37.558323410059955,126.9858657045178
11140130,11140,남산동3가,eup-myeon-dong,37.55999869324549,126.98736458682004
11140131,11140,저동1가,eup-myeon-dong,37.56424819219876,126.98787250995677
11140132,11140,충무로4가,eup-myeon-dong,37.56230846922987,126.99595818838789
11140133,11140,충무로5가,eup-myeon-dong,37.56257883352367,126.99957302041689
11140134,11140,인현동2가,eup-myeon-dong,37.56414151196773,126.99625460741287
11140135,11140,예관동,eup-myeon-dong,37.56408008314081,126.99802102663303
11140136,11140,묵정동,eup-myeon-dong,37.561446846061195,127.00052648748647
11140137,11140,필동1가,eup-myeon-dong,37.56114464692123,126.99239509284726
11140138,11140,필동2가,eup-myeon-dong,37.55778884027572,126.99495882357523
11140139,11140,필동3가,eup-myeon-dong,37.55775283872498,126.99735760279066
11140140,11140,남학동,eup-myeon-dong,37.56052211052512,126.99089213672727
11140141,11140,주자동,eup-myeon-dong,37.56064913241771,126.98937770972583
11140142,11140,예장동,eup-myeon-dong,37.555176115494284,126.98975855832896
11140143,11140,장충동1가,eup-myeon-dong,37.561034484346635,127.00762366230651
11140144,11140,장충동2가,eup-myeon-dong,37.55525765702686,127.00031614133837
11140145,11140,광희동1가,eup-myeon-dong,37.565036537520086,127.0051652507949
11140146,11140,광희동2가,eup-myeon-dong,37.56394271030065,127.00832785732358
11140147,11140,쌍림동,eup-myeon-dong,37.56376690207472,127.00453215624165
11140148,11140,을지로6가,eup-myeon-dong,37.56750310161885,127.00706133176796
11140149,11140,을지로7가,eup-myeon-dong,37.5664135143606,127.00949897549316
11140150,11140,을지로4가,eup-myeon-dong,37.56639320840057,126.9976868885368
11140151,11140,을지로5가,eup-myeon-dong,37.566817583339294,127.00216407121155
11140152,11140,주교동,eup-myeon-dong,37.56827366711495,126.99892038014337
11140153,11140,방산동,eup-myeon-dong,37.56854789849902,127.00311224086843
11140154,11140,오장동,eup-myeon-dong,37.564442211495056,127.00103103232127
11140155,11140,을지로3가,eup-myeon-dong,37.56659656171776,126.99238189905597
11140156,11140,입정동,eup-myeon-dong,37.567724554580536,126.99274940259315
11140157,11140,산림동,eup-myeon-dong,37.56761043487692,126.99615048061823
11140158,11140,충무로3가,eup-myeon-dong,37.56224594412477,126.9919425537158
11140159,11140,초동,eup-myeon-dong,37.56459873124891,126.99232721242271
11140160,11140,인현동1가,eup-myeon-dong,37.56453450445068,126.9945345319837
11140161,11140,저동2가,eup-myeon-dong,37.5643069012176,126.9898803927305
11140162,11140,신당동,eup-myeon-dong,37.556813972214044,127.01541669291234
11140163,11140,흥인동,eup-myeon-dong,37.5676472924364,127.01599115551548
11140164,11140,무학동,eup-myeon-dong,37.564226650576714,127.01520461431882
11140165,11140,황학동,eup-myeon-dong,37.56858891515088,127.02045231124953
11140166,11140,서소문동,eup-myeon-dong,37.56291507179503,126.97394037653085
11140167,11140,정동,eup-myeon-dong,37.56614242624208,126.97328810436028
11140168,11140,순화동,eup-myeon-dong,37.56234442014339,126.97079166179572
11140169,11140,의주로1가,eup-myeon-dong,37.56370383222388,126.9684745359427
11140170,11140,충정로1가,eup-myeon-dong,37.56687651487991,126.96807244622542
11140171,11140,중림동,eup-myeon-dong,37.55916239461197,126.96554555364244
11140172,11140,의주로2가,eup-myeon-dong,37.560663210341815,126.96949552645475
11140173,11140,만리동1가,eup-myeon-dong,37.55588711604199,126.96696820592261
11140174,11140,만리동2가,eup-myeon-dong,37.554252737929694,126.96430943175024
11170,11,용산구,si-gun-gu,37.5310971060111,126.98105776845263
11170101,11170,후암동,eup-myeon-dong,37.55038329204346,126.98048842453333
11170102,11170,용산동2가,eup-myeon-dong,37.54307288834501,126.98584689776149
11170103,11170,용산동4가,eup-myeon-dong,37.53058509369837,126.985865100779
11170104,11170,갈월동,eup-myeon-dong,37.544933750680656,126.97303982867362
11170105,11170,남영동,eup-myeon-dong,37.542848168131584,126.97337161734652
11170106,11170,용산동1가,eup-myeon-dong,37.540264120489326,126.976953061491
11170107,11170,동자동,eup-myeon-dong,37.55151799429284,126.97290069119734
11170108,11170,서계동,eup-myeon-dong,37.552603246338116,126.96650850659665
11170109,11170,청파동1가,eup-myeon-dong,37.548892259584534,126.9671549966076
11170110,11170,청파동2가,eup-myeon-dong,37.54623683045891,126.96666681260977
11170111,11170,청파동3가,eup-myeon-dong,37.543299667538804,126.96658542413553
11170112,11170,원효로1가,eup-myeon-dong,37.53990253441085,126.96753573840527
11170113,11170,원효로2가,eup-myeon-dong,37.53634866025902,126.9634488789283
11170114,11170,신창동,eup-myeon-dong,37.53583765948197,126.95494490725034
11170115,11170,산천동,eup-myeon-dong,37.53570598119077,126.95149005206893
11170116,11170,청암동,eup-myeon-dong,37.53425535672193,126.94686219558056
11170117,11170,원효로3가,eup-myeon-dong,37.534317148125055,126.95771555495048
11170118,11170,원효로4가,eup-myeon-dong,37.532929546119824,126.9506291020198
11170119,11170,효창동,eup-myeon-dong,37.54357361698162,126.96070503762795
11170120,11170,도원동,eup-myeon-dong,37.53878207060637,126.95624444312443
11170121,11170,용문동,eup-myeon-dong,37.53772096418938,126.95969290182019
11170122,11170,문배동,eup-myeon-dong,37.53712738685081,126.96898738098378
11170123,11170,신계동,eup-myeon-dong,37.53545072005039,126.96468419521058
11170124,11170,한강로1가,eup-myeon-dong,37.5358401268208,126.97308081469254
11170125,11170,한강로2가,eup-myeon-dong,37.53127737970247,126.9685864210542
11170126,11170,용산동3가,eup-myeon-dong,37.53216290522335,126.97627274862103
11170127,11170,용산동5가,eup-myeon-dong,37.5255999079294,126.97398683876324
11170128,11170,한강로3가,eup-myeon-dong,37.52804176415576,126.96321266477187
11170129,11170,이촌동,eup-myeon-dong,37.51882936926515,126.96511855999287
11170130,11170,이태원동,eup-myeon-dong,37.538856679871145,126.99226121905684
11170131,11170,한남동,eup-myeon-dong,37.537433777547925,127.00608212909314
11170132,11170,동빙고동,eup-myeon-dong,37.523577051457934,126.9951605852341
11170133,11170,서빙고동,eup-myeon-dong,37.51912382029193,126.9913841738143
11170134,11170,주성동,eup-myeon-dong,37.52156844952255,127.00027095883377
11170135,11170,용산동6가,eup-myeon-dong,37.516857374225,126.984195859905
11170136,11170,보광동,eup-myeon-dong,37.52688194494461,127.00168269520579
11200,11,성동구,si-gun-gu,37.55067234212737,127.04094427936553
11200101,11200,상왕십리동,eup-myeon-dong,37.56846355933712,127.02553357048993
11200102,11200,하왕십리동,eup-myeon-dong,37.56429027664535,127.02857688619213
11200103,11200,홍익동,eup-myeon-dong,37.567101053290855,127.03270291212691
11200104,11200,도선동,eup-myeon-dong,37.563419631483605,127.03320598013582
11200105,11200,마장동,eup-myeon-dong,37.56709958381339,127.04072691619757
11200106,11200,사근동,eup-myeon-dong,37.558944150515146,127.04673479156456
11200107,11200,행당동,eup-myeon-dong,37.55917034037813,127.0352320349403
11200108,11200,응봉동,eup-myeon-dong,37.55053293046328,127.03484150286187
11200109,11200,금호동1가,eup-myeon-dong,37.55295419163768,127.02458419988221
11200110,11200,금호동2가,eup-myeon-dong,37.55280415846256,127.02112866378266
11200111,11200,금호동3가,eup-myeon-dong,37.55036273401984,127.01939631448937
11200112,11200,금호동4가,eup-myeon-dong,37.545198889632445,127.02319363347686
11200113,11200,옥수동,eup-myeon-dong,37.54211775074319,127.0219822973853
11200114,11200,성수동1가,eup-myeon-dong,37.54311583746812,127.0419099350435
11200115,11200,성수동2가,eup-myeon-dong,37.539663757614974,127.05819687432358
11200118,11200,송정동,eup-myeon-dong,37.55409886483535,127.06214419940889
11200122,11200,용답동,eup-myeon-dong,37.56242634340579,127.05506748327355
11215,11,광진구,si-gun-gu,37.54813929379469,127.0857355399499
11215101,11215,중곡동,eup-myeon-dong,37.563058497999535,127.08830714219374
11215102,11215,능동,eup-myeon-dong,37.55112834315625,127.08187332334319
11215103,11215,구의동,eup-myeon-dong,37.543597843627666,127.09220702422867
11215104,11215,광장동,eup-myeon-dong,37.54772412365905,127.10419758558066
11215105,11215,자양동,eup-myeon-dong,37.53237076263595,127.07446359465354
11215107,11215,화양동,eup-myeon-dong,37.543498810937066,127.07367997016812
11215109,11215,군자동,eup-myeon-dong,37.5532376436369,127.0734753589421
11230,11,동대문구,si-gun-gu,37.583795614682,127.05068230044645
11230101,11230,신설동,eup-myeon-dong,37.574802139071664,127.02557576521954
11230102,11230,용두동,eup-myeon-dong,37.5762309525566,127.03485494033183
11230103,11230,제기동,eup-myeon-dong,37.58477999114089,127.03682202485196
11230104,11230,전농동,eup-myeon-dong,37.58028273388021,127.05565236594401
11230105,11230,답십리동,eup-myeon-dong,37.56992952057007,127.05510334955852
11230106,11230,장안동,eup-myeon-dong,37.57111201837456,127.0674081557222
11230107,11230,청량리동,eup-myeon-dong,37.588310975040564,127.04607214527041
11230108,11230,회기동,eup-myeon-dong,37.594434283225425,127.05210780475
11230109,11230,휘경동,eup-myeon-dong,37.588180549927046,127.06430883951116
11230110,11230,이문동,eup-myeon-dong,37.59939623656149,127.06245430923293
11260,11,중랑구,si-gun-gu,37.59537536421908,127.09395012140237
11260101,11260,면목동,eup-myeon-dong,37.581921914257876,127.0901919949738
11260102,11260,상봉동,eup-myeon-dong,37.60015447727311,127.08320515966129
11260103,11260,중화동,eup-myeon-dong,37.600458696960274,127.07843013733569
11260104,11260,묵동,eup-myeon-dong,37.612530343776086,127.08032359621916
11260105,11260,망우동,eup-myeon-dong,37.600370276056765,127.10563535721164
11260106,11260,신내동,eup-myeon-dong,37.61024767244014,127.10114001818856
11290,11,성북구,si-gun-gu,37.60698748686326,127.02320128657249
11290101,11290,성북동,eup-myeon-dong,37.59631845331853,126.99252418697492
11290102,11290,성북동1가,eup-myeon-dong,37.589535953696895,127.00401408818192
11290103,11290,돈암동,eup-myeon-dong,37.59717825962355,127.01781506412318
11290104,11290,동소문동1가,eup-myeon-dong,37.59013385337592,127.00723809679957
11290105,11290,동소문동2가,eup-myeon-dong,37.5888127099751,127.00811196700059
11290106,11290,동소문동3가,eup-myeon-dong,37.59038892827289,127.01159949649733
11290107,11290,동소문동4가,eup-myeon-dong,37.59186409216795,127.0105856273814
11290108,11290,동소문동5가,eup-myeon-dong,37.591508583963204,127.01504939264605
11290109,11290,동소문동6가,eup-myeon-dong,37.59362838501056,127.01401078079306
11290110,11290,동소문동7가,eup-myeon-dong,37.59630923477235,127.01427924673669
11290111,11290,삼선동1가,eup-myeon-dong,37.58438083877601,127.00749919550225
11290112,11290,삼선동2가,eup-myeon-dong,37.58485504211269,127.01186895106534
11290113,11290,삼선동3가,eup-myeon-dong,37.58674718601963,127.01342453109797
11290114,11290,삼선동4가,eup-myeon-dong,37.589815041898916,127.01333471513789
11290115,11290,삼선동5가,eup-myeon-dong,37.58854460476815,127.01598416783592
11290116,11290,동선동1가,eup-myeon-dong,37.592452885908045,127.0181908384038
11290117,11290,동선동2가,eup-myeon-dong,37.590042290574374,127.01969220433793
11290118,11290,동선동3가,eup-myeon-dong,37.594150022672636,127.02046705902387
11290119,11290,동선동4가,eup-myeon-dong,37.59512748254119,127.0188139654145
11290120,11290,동선동5가,eup-myeon-dong,37.596321801291126,127.0168657707669
11290121,11290,안암동1가,eup-myeon-dong,37.58871360546893,127.02227156939804
11290122,11290,안암동2가,eup-myeon-dong,37.58683729008988,127.02325091614384
11290123,11290,안암동3가,eup-myeon-dong,37.583948701047476,127.02365474861107
11290124,11290,안암동4가,eup-myeon-dong,37.580537522930236,127.02458967068728
11290125,11290,안암동5가,eup-myeon-dong,37.58843491824499,127.02956976340616
11290126,11290,보문동4가,eup-myeon-dong,37.582899916655094,127.02136486318162
11290127,11290,보문동5가,eup-myeon-dong,37.582399690584424,127.02013939564705
11290128,11290,보문동6가,eup-myeon-dong,37.58062975896098,127.0192793524897
11290129,11290,보문동7가,eup-myeon-dong,37.579606161975235,127.02230424825743
11290130,11290,보문동1가,eup-myeon-dong,37.58649562073603,127.01959089334662
11290131,11290,보문동2가,eup-myeon-dong,37.585845968627964,127.01828350000875
11290132,11290,보문동3가,eup-myeon-dong,37.584328846267354,127.01650123396988
11290133,11290,정릉동,eup-myeon-dong,37.61677264558618,126.99833628550053
11290134,11290,길음동,eup-myeon-dong,37.60848448598538,127.0223740910991
11290135,11290,종암동,eup-myeon-dong,37.59652267227868,127.0332628277269
11290136,11290,하월곡동,eup-myeon-dong,37.604165488123,127.03786931692682
11290137,11290,상월곡동,eup-myeon-dong,37.606053239427986,127.04752233149904
11290138,11290,장위동,eup-myeon-dong,37.61603343036472,127.05032077147284
11290139,11290,석관동,eup-myeon-dong,37.60793695485451,127.06115913203564
11305,11,강북구,si-gun-gu,37.64703127247889,127.01469738339163
11305101,11305,미아동,eup-myeon-dong,37.62198457523316,127.0235518954874
11305102,11305,번동,eup-myeon-dong,37.629222217984825,127.03636382655748
11305103,11305,수유동,eup-myeon-dong,37.63712728706139,127.00752865837126
11305104,11305,우이동,eup-myeon-dong,37.66327653325655,126.99920151788999
11320,11,도봉구,si-gun-gu,37.6659347737978,127.03174684411717
11320105,11320,쌍문동,eup-myeon-dong,37.65255012041992,127.02735494352949
11320106,11320,방학동,eup-myeon-dong,37.6646429818877,127.03346833130443
11320107,11320,창동,eup-myeon-dong,37.64630706333777,127.04336471042006
11320108,11320,도봉동,eup-myeon-dong,37.6853153304909,127.02984613483528
11350,11,노원구,si-gun-gu,37.65520237933155,127.07710324369778
11350102,11350,월계동,eup-myeon-dong,37.62954934103933,127.05623745431525
11350103,11350,공릉동,eup-myeon-dong,37.630473214416966,127.08846718368008
11350104,11350,하계동,eup-myeon-dong,37.63848908331967,127.07149259158619
11350105,11350,상계동,eup-myeon-dong,37.66641255931772,127.07230466702384
11350106,11350,중계동,eup-myeon-dong,37.65087231249305,127.07749254767342
11380,11,은평구,si-gun-gu,37.61761015011233,126.92267984160216
11380101,11380,수색동,eup-myeon-dong,37.58498350534049,126.89282807003445
11380102,11380,녹번동,eup-myeon-dong,37.60411550277024,126.93447148145023
11380103,11380,불광동,eup-myeon-dong,37.61918838555631,126.93511532073327
11380104,11380,갈현동,eup-myeon-dong,37.62109375177525,126.91324347986887
11380105,11380,구산동,eup-myeon-dong,37.612196956911426,126.90879887097381
11380106,11380,대조동,eup-myeon-dong,37.612645174017395,126.92436956523433
11380107,11380,응암동,eup-myeon-dong,37.59267999256678,126.9257785504195
11380108,11380,역촌동,eup-myeon-dong,37.60507605939294,126.91212404520597
11380109,11380,신사동,eup-myeon-dong,37.59591808352735,126.90744517041259
11380110,11380,증산동,eup-myeon-dong,37.58317619252306,126.90608658492489
11380114,11380,진관동,eup-myeon-dong,37.6422489853061,126.93406540512048
11410,11,서대문구,si-gun-gu,37.58285894506021,126.93564653443116
11410101,11410,충정로2가,eup-myeon-dong,37.56496405851239,126.96396915790561
11410102,11410,충정로3가,eup-myeon-dong,37.562285348807464,126.9621529779022
11410103,11410,합동,eup-myeon-dong,37.56135884585323,126.96623171230641
11410104,11410,미근동,eup-myeon-dong,37.56356688751005,126.96737986077
11410105,11410,냉천동,eup-myeon-dong,37.56749190732596,126.96221627288884
11410106,11410,천연동,eup-myeon-dong,37.56747797518433,126.95974170746676
11410107,11410,옥천동,eup-myeon-dong,37.56919801884068,126.95911200308377
11410108,11410,영천동,eup-myeon-dong,37.57015522862429,126.95830623811632
11410109,11410,현저동,eup-myeon-dong,37.5741146012156,126.95471411058028
11410110,11410,북아현동,eup-myeon-dong,37.563695112173164,126.95483796511921
11410111,11410,홍제동,eup-myeon-dong,37.58732399899863,126.94725976785975
11410112,11410,대현동,eup-myeon-dong,37.56139813164578,126.94529406069248
11410113,11410,대신동,eup-myeon-dong,37.5646425568252,126.9438927210573
11410114,11410,신촌동,eup-myeon-dong,37.56515295352614,126.94332978475603
11410115,11410,봉원동,eup-myeon-dong,37.57263167642958,126.94721182215591
11410116,11410,창천동,eup-myeon-dong,37.55880980842299,126.93413296884617
11410117,11410,연희동,eup-myeon-dong,37.572527180257936,126.93124703711572
11410118,11410,홍은동,eup-myeon-dong,37.59333873946426,126.93955511059806
11410119,11410,북가좌동,eup-myeon-dong,37.578833805593604,126.91169775673677
11410120,11410,남가좌동,eup-myeon-dong,37.576692216398065,126.91848694318766
11440,11,마포구,si-gun-gu,37.56228635499435,126.90876338722234
11440101,11440,아현동,eup-myeon-dong,37.554419488110995,126.95594690501156
11440102,11440,공덕동,eup-myeon-dong,37.54743110703947,126.95497598092891
11440103,11440,신공덕동,eup-myeon-dong,37.54439755117775,126.95559070289876
11440104,11440,도화동,eup-myeon-dong,37.539557490729564,126.95060982206596
11440105,11440,용강동,eup-myeon-dong,37.54131529701566,126.94043629320291
11440106,11440,토정동,eup-myeon-dong,37.53888275988997,126.9396663955226
11440107,11440,마포동,eup-myeon-dong,37.536878377347705,126.94360664809007
11440108,11440,대흥동,eup-myeon-dong,37.5498954132286,126.94266776220738
11440109,11440,염리동,eup-myeon-dong,37.54922354372101,126.94710346393362
11440110,11440,노고산동,eup-myeon-dong,37.55402418027822,126.93822687780656
11440111,11440,신수동,eup-myeon-dong,37.5480054766397,126.93724330877347
11440112,11440,현석동,eup-myeon-dong,37.542255857788085,126.93452531588159
11440113,11440,구수동,eup-myeon-dong,37.546003822424225,126.93226438823945
11440114,11440,창전동,eup-myeon-dong,37.549872403622025,126.92905022417013
11440115,11440,상수동,eup-myeon-dong,37.547023771430645,126.92435511354788
11440116,11440,하중동,eup-myeon-dong,37.54380306294989,126.92826321254623
11440117,11440,신정동,eup-myeon-dong,37.54325962106785,126.93065061641241
11440118,11440,당인동,eup-myeon-dong,37.54352911534701,126.92348333747572
11440120,11440,서교동,eup-myeon-dong,37.55364826470863,126.92110294804127
11440121,11440,동교동,eup-myeon-dong,37.558094020854114,126.92578679668333
11440122,11440,합정동,eup-myeon-dong,37.54780163996375,126.90797440307038
11440123,11440,망원동,eup-myeon-dong,37.55593624486687,126.89989972872621
11440124,11440,연남동,eup-myeon-dong,37.56266755011313,126.92235448556585
11440125,11440,성산동,eup-myeon-dong,37.56621448409926,126.90390625526024
11440126,11440,중동,eup-myeon-dong,37.57167065399099,126.90672473738167
11440127,11440,상암동,eup-myeon-dong,37.57154226932914,126.87785700594219
11470,11,양천구,si-gun-gu,37.5270547564144,126.85613714888484
11470101,11470,신정동,eup-myeon-dong,37.51632919681123,126.85238372508456
11470102,11470,목동,eup-myeon-dong,37.53672546441916,126.87639942471174
11470103,11470,신월동,eup-myeon-dong,37.52802641765143,126.83704783501327
11500,11,강서구,si-gun-gu,37.56575846055383,126.822637670527
11500101,11500,염창동,eup-myeon-dong,37.55596610738828,126.87122379457381
11500102,11500,등촌동,eup-myeon-dong,37.55198120784917,126.8527742849198
11500103,11500,화곡동,eup-myeon-dong,37.5421647217735,126.84682678289448
11500104,11500,가양동,eup-myeon-dong,37.56797703560386,126.85258856130426
11500105,11500,마곡동,eup-myeon-dong,37.57146608410117,126.82948387737767
11500106,11500,내발산동,eup-myeon-dong,37.55280945468937,126.83293838964694
11500107,11500,외발산동,eup-myeon-dong,37.54870296090118,126.81990400226492
11500108,11500,공항동,eup-myeon-dong,37.55267375742288,126.80875171181289
11500109,11500,방화동,eup-myeon-dong,37.57736013925485,126.81194134494771
11500110,11500,개화동,eup-myeon-dong,37.58657031589003,126.80312094933939
11500111,11500,과해동,eup-myeon-dong,37.56621140986701,126.78833623740256
11500112,11500,오곡동,eup-myeon-dong,37.553402753499455,126.78314549724541
11500113,11500,오쇠동,eup-myeon-dong,37.54354832477392,126.79786109995298
11530,11,구로구,si-gun-gu,37.49548149604898,126.85810550811485
11530101,11530,신도림동,eup-myeon-dong,37.51058081527357,126.88305592254213
11530102,11530,구로동,eup-myeon-dong,37.493785355068866,126.88530258997659
11530103,11530,가리봉동,eup-myeon-dong,37.4830095086924,126.88823394926246
11530106,11530,고척동,eup-myeon-dong,37.50239977998205,126.85860145019333
11530107,11530,개봉동,eup-myeon-dong,37.49464628112062,126.85174630588378
11530108,11530,오류동,eup-myeon-dong,37.492243106535796,126.8371882209421
11530109,11530,궁동,eup-myeon-dong,37.5009462321007,126.82864625268508
11530110,11530,온수동,eup-myeon-dong,37.49367203187941,126.82040404480867
11530111,11530,천왕동,eup-myeon-dong,37.48116698163108,126.83967411744356
11530112,11530,항동,eup-myeon-dong,37.48101615390547,126.8236401261925
11545,11,금천구,si-gun-gu,37.46008995620475,126.9001345424644
11545101,11545,가산동,eup-myeon-dong,37.4754628559404,126.88421960820239
11545102,11545,독산동,eup-myeon-dong,37.466357516637956,126.8975626943361
11545103,11545,시흥동,eup-myeon-dong,37.44969621080264,126.91067808177365
11560,11,영등포구,si-gun-gu,37.520635093211496,126.91390765418964
11560101,11560,영등포동,eup-myeon-dong,37.51340683262995,126.90676783883652
11560102,11560,영등포동1가,eup-myeon-dong,37.51772196697455,126.91265538003572
11560103,11560,영등포동2가,eup-myeon-dong,37.520882486758296,126.91265311539982
11560104,11560,영등포동3가,eup-myeon-dong,37.51812211233004,126.90838402178014
11560105,11560,영등포동4가,eup-myeon-dong,37.517855155999854,126.90388189390029
11560106,11560,영등포동5가,eup-myeon-dong,37.52103193652796,126.90680153404656
11560107,11560,영등포동6가,eup-myeon-dong,37.522245850002804,126.90302189169626
11560108,11560,영등포동7가,eup-myeon-dong,37.524253085725206,126.90717173895786
11560109,11560,영등포동8가,eup-myeon-dong,37.52907847065611,126.90499612638484
11560110,11560,여의도동,eup-myeon-dong,37.52842373171817,126.92736002791861
11560111,11560,당산동1가,eup-myeon-dong,37.52143726493892,126.89851972525102
11560112,11560,당산동2가,eup-myeon-dong,37.52245740497966,126.8937972513151
11560113,11560,당산동3가,eup-myeon-dong,37.526233122198434,126.89740983797499
11560114,11560,당산동4가,eup-myeon-dong,37.52912992940759,126.89911781008291
11560115,11560,당산동5가,eup-myeon-dong,37.53212212176008,126.90099510348011
11560116,11560,당산동6가,eup-myeon-dong,37.53474583279775,126.90315369310218
11560117,11560,당산동,eup-myeon-dong,37.53488528436152,126.90245068409656
11560118,11560,도림동,eup-myeon-dong,37.508234707373134,126.90152450397292
11560119,11560,문래동1가,eup-myeon-dong,37.51186664536909,126.89755686284457
11560120,11560,문래동2가,eup-myeon-dong,37.51270819941406,126.89352018833571
11560121,11560,문래동3가,eup-myeon-dong,37.51710274654715,126.89594054419635
11560122,11560,문래동4가,eup-myeon-dong,37.514462154876455,126.89013625424053
11560123,11560,문래동5가,eup-myeon-dong,37.516360675718026,126.88349976130004
11560124,11560,문래동6가,eup-myeon-dong,37.52003835658691,126.88415016816064
11560125,11560,양평동1가,eup-myeon-dong,37.52317827412833,126.88865537657244
11560126,11560,양평동2가,eup-myeon-dong,37.52333228581553,126.88391412394547
11560127,11560,양평동3가,eup-myeon-dong,37.529674623933616,126.88977118558815
11560128,11560,양평동4가,eup-myeon-dong,37.536425043747826,126.89621731091842
11560129,11560,양평동5가,eup-myeon-dong,37.5389142849142,126.89292280155865
11560130,11560,양평동6가,eup-myeon-dong,37.54271404626585,126.88941310048058
11560131,11560,양화동,eup-myeon-dong,37.54899123621956,126.89005876357021
11560132,11560,신길동,eup-myeon-dong,37.505817708997355,126.91263665777335
11560133,11560,대림동,eup-myeon-dong,37.49704890313289,126.90090872524755
11560134,11560,양평동,eup-myeon-dong,37.53260461790839,126.88994349912873
11590,11,동작구,si-gun-gu,37.49649877218074,126.9442918588721
11590101,11590,노량진동,eup-myeon-dong,37.51149481419982,126.9414977163766
11590102,11590,상도동,eup-myeon-dong,37.499679095372116,126.94553680171998
11590103,11590,상도1동,eup-myeon-dong,37.50323274139164,126.9498485784091
11590104,11590,본동,eup-myeon-dong,37.512481859851434,126.9550977019702
11590105,11590,흑석동,eup-myeon-dong,37.50527155644015,126.96380805756486
11590106,11590,동작동,eup-myeon-dong,37.49990371240002,126.97366128789196
11590107,11590,사당동,eup-myeon-dong,37.48517236914526,126.97178073172566
11590108,11590,대방동,eup-myeon-dong,37.50674400775557,126.92772969759412
11590109,11590,신대방동,eup-myeon-dong,37.49212968644635,126.91664589634867
11620,11,관악구,si-gun-gu,37.46539166282812,126.94378978886334
11620101,11620,봉천동,eup-myeon-dong,37.47503045427145,126.9490714896324
11620102,11620,신림동,eup-myeon-dong,37.46302279047799,126.93475659349593
11620103,11620,남현동,eup-myeon-dong,37.463051443826956,126.97760991003848
11650,11,서초구,si-gun-gu,37.47694625586114,127.03779393440783
11650101,11650,방배동,eup-myeon-dong,37.47900283316213,126.99589601249721
11650102,11650,양재동,eup-myeon-dong,37.46845009280656,127.0362301568762
11650103,11650,우면동,eup-myeon-dong,37.4660564209552,127.01784861330901
11650104,11650,원지동,eup-myeon-dong,37.444986720684554,127.04957947518582
11650106,11650,잠원동,eup-myeon-dong,37.515298580148794,127.00937474308898
11650107,11650,반포동,eup-myeon-dong,37.50457903008299,127.00215991528344
11650108,11650,서초동,eup-myeon-dong,37.48851113956333,127.01710754582774
11650109,11650,내곡동,eup-myeon-dong,37.458332692495375,127.0770691298573
11650110,11650,염곡동,eup-myeon-dong,37.4631378455109,127.05272014051005
11650111,11650,신원동,eup-myeon-dong,37.44514218824999,127.05963764207127
11680,11,강남구,si-gun-gu,37.49597874160618,127.06639259780266
11680101,11680,역삼동,eup-myeon-dong,37.49986278422562,127.03867392340602
11680103,11680,개포동,eup-myeon-dong,37.48243958811675,127.06271383082571
11680104,11680,청담동,eup-myeon-dong,37.52558237370103,127.05225739333333
11680105,11680,삼성동,eup-myeon-dong,37.51479309504022,127.05507015401578
11680106,11680,대치동,eup-myeon-dong,37.49894339080747,127.06463787397206
11680107,11680,신사동,eup-myeon-dong,37.52289638097291,127.02463609065234
11680108,11680,논현동,eup-myeon-dong,37.513829058804085,127.03168868604169
11680110,11680,압구정동,eup-myeon-dong,37.52882663886645,127.02948584600912
11680111,11680,세곡동,eup-myeon-dong,37.4644394158856,127.10662235802116
11680112,11680,자곡동,eup-myeon-dong,37.47663066500715,127.10009887985882
11680113,11680,율현동,eup-myeon-dong,37.47173223727282,127.11145439581097
11680114,11680,일원동,eup-myeon-dong,37.48791308979291,127.08519656287274
11680115,11680,수서동,eup-myeon-dong,37.48550804708782,127.09844846402325
11680118,11680,도곡동,eup-myeon-dong,37.4881248934402,127.04401907787349
11710,11,송파구,si-gun-gu,37.50484401124089,127.11446609120611
11710101,11710,잠실동,eup-myeon-dong,37.51115124367143,127.08578934158616
11710102,11710,신천동,eup-myeon-dong,37.525073039354965,127.09218060522566
11710103,11710,풍납동,eup-myeon-dong,37.53353830889024,127.11320719395252
11710104,11710,송파동,eup-myeon-dong,37.50491318027611,127.11383165176844
11710105,11710,석촌동,eup-myeon-dong,37.502822845458084,127.1040863013716
11710106,11710,삼전동,eup-myeon-dong,37.50180435132732,127.08974825337862
11710107,11710,가락동,eup-myeon-dong,37.49427192717086,127.11761184490629
11710108,11710,문정동,eup-myeon-dong,37.48539220935527,127.12372702800822
11710109,11710,장지동,eup-myeon-dong,37.47856344778185,127.13175477556968
11710111,11710,방이동,eup-myeon-dong,37.51635103070707,127.12605070858007
11710112,11710,오금동,eup-myeon-dong,37.5037283217536,127.13389664418986
11710113,11710,거여동,eup-myeon-dong,37.49064130928434,127.1470422299754
11710114,11710,마천동,eup-myeon-dong,37.497458689319025,127.15154541360567
11740,11,강동구,si-gun-gu,37.54901802767094,127.14646884245863
11740101,11740,명일동,eup-myeon-dong,37.54858542173304,127.15173896556064
11740102,11740,고덕동,eup-myeon-dong,37.56553481169442,127.15844259374683
11740103,11740,상일동,eup-myeon-dong,37.551432936464124,127.16985516650877
11740105,11740,길동,eup-myeon-dong,37.53970072787962,127.14699106053635
11740106,11740,둔촌동,eup-myeon-dong,37.528931697912654,127.14692718812607
11740107,11740,암사동,eup-myeon-dong,37.55778386785951,127.1294928349545
11740108,11740,성내동,eup-myeon-dong,37.53040162226188,127.12882618705086
11740109,11740,천호동,eup-myeon-dong,37.543179290979225,127.12654775520556
11740110,11740,강일동,eup-myeon-dong,37.56908358850734,127.17202363206866
26,,부산광역시,si-do,35.136732446287915,129.03366155807294
26110,26,중구,si-gun-gu,35.106139970475226,129.03434636759934
26110101,26110,영주동,eup-myeon-dong,35.11239940007866,129.03267983254793
26110102,26110,대창동1가,eup-myeon-dong,35.10789126570687,129.03612478502004
26110103,26110,대창동2가,eup-myeon-dong,35.11063740930557,129.0373981059654
26110104,26110,중앙동1가,eup-myeon-dong,35.100673315469436,129.03563977649765
26110105,26110,중앙동2가,eup-myeon-dong,35.10202952273007,129.03555362103123
26110106,26110,중앙동3가,eup-myeon-dong,35.10340894665328,129.035524116808
26110107,26110,중앙동4가,eup-myeon-dong,35.107460095792916,129.04097960506292
26110108,26110,중앙동5가,eup-myeon-dong,35.10228739430703,129.03707934807474
26110109,26110,중앙동6가,eup-myeon-dong,35.09975334349147,129.03717665502498
26110110,26110,중앙동7가,eup-myeon-dong,35.09748475857512,129.03674132226533
26110111,26110,동광동1가,eup-myeon-dong,35.098867524187284,129.0356184457688
26110112,26110,동광동2가,eup-myeon-dong,35.1001050449221,129.03428860409744
26110113,26110,동광동3가,eup-myeon-dong,35.10156861710071,129.03393775622436
26110114,26110,동광동4가,eup-myeon-dong,35.10333007193114,129.03418802464518
26110115,26110,동광동5가,eup-myeon-dong,35.1064396162045,129.0339472681676
26110116,26110,대청동1가,eup-myeon-dong,35.104001935708965,129.0329618117986
26110117,26110,대청동2가,eup-myeon-dong,35.10322844915188,129.03080281690177
26110118,26110,대청동3가,eup-myeon-dong,35.102968040351115,129.02889361866738
26110119,26110,대청동4가,eup-myeon-dong,35.1060668689892,129.03009021525025
26110120,26110,보수동1가,eup-myeon-dong,35.10687849803964,129.02534195883885
26110121,26110,보수동2가,eup-myeon-dong,35.105242159251176,129.0234275974454
26110122,26110,보수동3가,eup-myeon-dong,35.10469273928888,129.02255177978245
26110123,26110,부평동1가,eup-myeon-dong,35.10069854919348,129.02707786639098
26110124,26110,부평동2가,eup-myeon-dong,35.100523488385235,129.0256337767318
26110125,26110,부평동3가,eup-myeon-dong,35.10106237165919,129.02450073724614
26110126,26110,부평동4가,eup-myeon-dong,35.101838568103936,129.0225277718195
26110127,26110,신창동1가,eup-myeon-dong,35.10129220769082,129.03027416821936
26110128,26110,신창동2가,eup-myeon-dong,35.101386921847265,129.02956115038876
26110129,26110,신창동3가,eup-myeon-dong,35.10139248924121,129.02889646030218
26110130,26110,신창동4가,eup-myeon-dong,35.10142482431202,129.0282370212161
26110131,26110,창선동1가,eup-myeon-dong,35.099509521795426,129.0303220736248
26110132,26110,창선동2가,eup-myeon-dong,35.09956670432275,129.02861720944156
26110133,26110,광복동1가,eup-myeon-dong,35.098862104208465,129.03441355549762
26110134,26110,광복동2가,eup-myeon-dong,35.10014775938325,129.0323802462816
26110135,26110,광복동3가,eup-myeon-dong,35.10056375826382,129.03139439551916
26110136,26110,남포동1가,eup-myeon-dong,35.09726393322109,129.03480287840932
26110137,26110,남포동2가,eup-myeon-dong,35.09809721948527,129.0323340487948
26110138,26110,남포동3가,eup-myeon-dong,35.09890485998064,129.0291960760245
26110139,26110,남포동4가,eup-myeon-dong,35.09757797541091,129.03252019288834
26110140,26110,남포동5가,eup-myeon-dong,35.09746342381895,129.0293237267099
26110141,26110,남포동6가,eup-myeon-dong,35.097289562330076,129.02698437034965
26140,26,서구,si-gun-gu,35.094482407199195,129.0135742806961
26140101,26140,동대신동1가,eup-myeon-dong,35.10999334368684,129.022222315033
26140102,26140,동대신동2가,eup-myeon-dong,35.11337854131932,129.02232417746333
26140103,26140,동대신동3가,eup-myeon-dong,35.12453829524227,129.02082632738998
26140104,26140,서대신동1가,eup-myeon-dong,35.10744369069346,129.0152495413432
26140105,26140,서대신동2가,eup-myeon-dong,35.109541287734274,129.0106909348891
26140106,26140,서대신동3가,eup-myeon-dong,35.125922327824256,129.00950113510373
26140107,26140,부용동1가,eup-myeon-dong,35.10641997073931,129.0211797630801
26140108,26140,부용동2가,eup-myeon-dong,35.10644375440992,129.0171426595502
26140109,26140,부민동1가,eup-myeon-dong,35.10360601717057,129.02066991769522
26140110,26140,부민동2가,eup-myeon-dong,35.10365297661654,129.01931963940694
26140111,26140,부민동3가,eup-myeon-dong,35.103982340300334,129.01589204851967
26140112,26140,토성동1가,eup-myeon-dong,35.09970184862098,129.0234749726498
26140113,26140,토성동2가,eup-myeon-dong,35.1002860784775,129.02150863199444
26140114,26140,토성동3가,eup-myeon-dong,35.100096957843476,129.02030585653694
26140115,26140,아미동1가,eup-myeon-dong,35.100381096637875,129.01911597614134
26140116,26140,아미동2가,eup-myeon-dong,35.10018006084536,129.0129209872381
26140117,26140,토성동4가,eup-myeon-dong,35.09727181743818,129.0238416653656
26140118,26140,토성동5가,eup-myeon-dong,35.097401693843736,129.0216873275716
26140119,26140,초장동,eup-myeon-dong,35.09379242430359,129.01750655835423
26140120,26140,충무동1가,eup-myeon-dong,35.09565128096472,129.02461103289485
26140121,26140,충무동2가,eup-myeon-dong,35.095233815119045,129.02231701232472
26140122,26140,충무동3가,eup-myeon-dong,35.09391786770339,129.02220155043733
26140123,26140,남부민동,eup-myeon-dong,35.087254123558594,129.02305625260811
26140124,26140,암남동,eup-myeon-dong,35.06874164423229,129.01504352946034
26170,26,동구,si-gun-gu,35.12741874990348,129.04526358666098
26170101,26170,초량동,eup-myeon-dong,35.11992159123075,129.03981436043236
26170102,26170,수정동,eup-myeon-dong,35.13142739684288,129.03819979983984
26170103,26170,좌천동,eup-myeon-dong,35.12858470674409,129.05277065784753
26170104,26170,범일동,eup-myeon-dong,35.1345063647575,129.05228355029718
26200,26,영도구,si-gun-gu,35.07017372372337,129.06811727135323
26200101,26200,대교동1가,eup-myeon-dong,35.093063943474476,129.03808113125598
26200102,26200,대교동2가,eup-myeon-dong,35.09167906824285,129.04100469737327
26200103,26200,대평동1가,eup-myeon-dong,35.09121631089191,129.0347689289366
26200104,26200,대평동2가,eup-myeon-dong,35.09241223692602,129.03278066730945
26200105,26200,남항동1가,eup-myeon-dong,35.090184268370194,129.03916368869753
26200106,26200,남항동2가,eup-myeon-dong,35.08828821915422,129.036589091091
26200107,26200,남항동3가,eup-myeon-dong,35.08478288894758,129.03673900416175
26200108,26200,영선동1가,eup-myeon-dong,35.09029073740315,129.04371634300486
26200109,26200,영선동2가,eup-myeon-dong,35.08832693088209,129.04249122148016
26200110,26200,영선동3가,eup-myeon-dong,35.0857650054065,129.04123705080855
26200111,26200,영선동4가,eup-myeon-dong,35.07917907370649,129.04562807716917
26200112,26200,신선동1가,eup-myeon-dong,35.09063808314604,129.04757786158797
26200113,26200,신선동2가,eup-myeon-dong,35.086383885308145,129.0479127682944
26200114,26200,신선동3가,eup-myeon-dong,35.08227317204022,129.04891110558628
26200115,26200,봉래동1가,eup-myeon-dong,35.094478658042235,129.04000612909482
26200116,26200,봉래동2가,eup-myeon-dong,35.09451344600731,129.0427907734902
26200117,26200,봉래동3가,eup-myeon-dong,35.09428398964751,129.04479867148132
26200118,26200,봉래동4가,eup-myeon-dong,35.09250363144328,129.04903433597065
26200119,26200,봉래동5가,eup-myeon-dong,35.09302669111763,129.05182319785956
26200120,26200,청학동,eup-myeon-dong,35.09250591211389,129.06254121713903
26200121,26200,동삼동,eup-myeon-dong,35.063586360705415,129.0786023670825
26230,26,부산진구,si-gun-gu,35.167793184810165,129.0466674612578
26230101,26230,양정동,eup-myeon-dong,35.17213474068599,129.06979011887847
26230102,26230,전포동,eup-myeon-dong,35.158660635706525,129.07255886066633
26230103,26230,부전동,eup-myeon-dong,35.157151227622634,129.05708896851974
26230104,26230,범천동,eup-myeon-dong,35.14894012681631,129.05112197253035
26230105,26230,범전동,eup-myeon-dong,35.166947125295884,129.06001424039744
26230106,26230,연지동,eup-myeon-dong,35.17205655229857,129.0534480770333
26230107,26230,초읍동,eup-myeon-dong,35.18592967020164,129.04140354527988
26230108,26230,부암동,eup-myeon-dong,35.170528164529145,129.03736246664653
26230109,26230,당감동,eup-myeon-dong,35.168091131580894,129.03049052653705
26230110,26230,가야동,eup-myeon-dong,35.14653506858282,129.03404990503475
26230111,26230,개금동,eup-myeon-dong,35.151011022736306,129.02219040503542
26260,26,동래구,si-gun-gu,35.20479952290575,129.08024953396563
26260101,26260,명장동,eup-myeon-dong,35.207827633396704,129.1031959459839
26260102,26260,안락동,eup-myeon-dong,35.194060427758885,129.10400331934804
26260103,26260,칠산동,eup-myeon-dong,35.20488295314277,129.0914311620655
26260104,26260,낙민동,eup-myeon-dong,35.197053513004235,129.0929800380182
26260105,26260,복천동,eup-myeon-dong,35.20691867108613,129.0879585065224
26260106,26260,수안동,eup-myeon-dong,35.19883829664829,129.08505969336085
26260107,26260,명륜동,eup-myeon-dong,35.209885980811706,129.08599677259548
26260108,26260,온천동,eup-myeon-dong,35.21335723933771,129.0690297822259
26260109,26260,사직동,eup-myeon-dong,35.19997562020501,129.06234671595325
26290,26,남구,si-gun-gu,35.12611300459368,129.0958606323378
26290106,26290,대연동,eup-myeon-dong,35.140451292999764,129.09362126972553
26290107,26290,용호동,eup-myeon-dong,35.113127150958405,129.11354375978902
26290108,26290,용당동,eup-myeon-dong,35.109151690785936,129.09749763899902
26290109,26290,문현동,eup-myeon-dong,35.13885653388751,129.0735464393078
26290110,26290,우암동,eup-myeon-dong,35.12619314654112,129.0759305354698
26290111,26290,감만동,eup-myeon-dong,35.11446229353994,129.07794981270638
26320,26,북구,si-gun-gu,35.23218487068756,129.02475128981908
26320101,26320,금곡동,eup-myeon-dong,35.258441992252344,129.02463360741785
26320102,26320,화명동,eup-myeon-dong,35.23891885361745,129.02356588641038
26320103,26320,만덕동,eup-myeon-dong,35.21227000494621,129.0412603644462
26320104,26320,덕천동,eup-myeon-dong,35.218018804450054,129.00847590515065
26320105,26320,구포동,eup-myeon-dong,35.199593491312626,129.00679737457267
26350,26,해운대구,si-gun-gu,35.201407060733224,129.15932505373894
26350101,26350,반송동,eup-myeon-dong,35.22767468797527,129.15235215255427
26350102,26350,석대동,eup-myeon-dong,35.225625417671154,129.13149577286276
26350103,26350,반여동,eup-myeon-dong,35.205451429478444,129.1331100535872
26350104,26350,재송동,eup-myeon-dong,35.18410042991157,129.12999904888872
26350105,26350,우동,eup-myeon-dong,35.17559656134251,129.1434190256133
26350106,26350,중동,eup-myeon-dong,35.16411776060296,129.17832550777229
26350107,26350,좌동,eup-myeon-dong,35.184393869052954,129.17224517719433
26350108,26350,송정동,eup-myeon-dong,35.182527437155336,129.19799133627407
26380,26,사하구,si-gun-gu,35.0106366375355,128.9707054166713
26380101,26380,괴정동,eup-myeon-dong,35.10548085603121,128.99277038353046
26380102,26380,당리동,eup-myeon-dong,35.11065650397558,128.9841023740607
26380103,26380,하단동,eup-myeon-dong,35.10948584716195,128.95424894526587
26380104,26380,신평동,eup-myeon-dong,35.090407909386414,128.9671125617661
26380105,26380,장림동,eup-myeon-dong,35.0755293494227,128.96375759366535
26380106,26380,다대동,eup-myeon-dong,34.97854348412798,128.96372868101508
26380107,26380,구평동,eup-myeon-dong,35.069933412766915,128.99475629530286
26380108,26380,감천동,eup-myeon-dong,35.08815643051982,129.0024814414776
26410,26,금정구,si-gun-gu,35.25806241098279,129.090584827732
26410101,26410,두구동,eup-myeon-dong,35.287559237574975,129.11364994135334
26410102,26410,노포동,eup-myeon-dong,35.289386155768256,129.0898336093387
26410103,26410,청룡동,eup-myeon-dong,35.283110181231514,129.07365900698625
26410104,26410,남산동,eup-myeon-dong,35.26662742101472,129.0786633290914
26410105,26410,선동,eup-myeon-dong,35.27248271681172,129.11191799325695
26410106,26410,오륜동,eup-myeon-dong,35.24600272291673,129.1203414581046
26410107,26410,구서동,eup-myeon-dong,35.2536925715384,129.0841604085046
26410108,26410,장전동,eup-myeon-dong,35.23641797274989,129.07433123932265
26410109,26410,부곡동,eup-myeon-dong,35.23153186495807,129.0948191203414
26410110,26410,서동,eup-myeon-dong,35.21969339827339,129.10241068441866
26410111,26410,금사동,eup-myeon-dong,35.2215344078479,129.11097972708546
26410112,26410,회동동,eup-myeon-dong,35.239128840841325,129.12627679792462
26410113,26410,금성동,eup-myeon-dong,35.25418058904614,129.05252970047053
26440,26,강서구,si-gun-gu,35.11258663841569,128.87997108754251
26440101,26440,대저1동,eup-myeon-dong,35.211875974841504,128.9622755946967
26440102,26440,대저2동,eup-myeon-dong,35.15752038724281,128.9521530727692
26440103,26440,강동동,eup-myeon-dong,35.179784738220455,128.9249587879699
26440104,26440,명지동,eup-myeon-dong,35.09320288827682,128.91060667863746
26440105,26440,죽림동,eup-myeon-dong,35.19959098383005,128.89949890186313
26440106,26440,식만동,eup-myeon-dong,35.21250029668566,128.9068502515994
26440107,26440,죽동동,eup-myeon-dong,35.198235486359536,128.8834835320673
26440108,26440,봉림동,eup-myeon-dong,35.1654575015462,128.89312902648624
26440109,26440,송정동,eup-myeon-dong,35.10669900452034,128.8457533756158
26440110,26440,화전동,eup-myeon-dong,35.10376996049396,128.87179982302555
26440111,26440,녹산동,eup-myeon-dong,35.11907556459059,128.87953027163474
26440112,26440,생곡동,eup-myeon-dong,35.13191335988897,128.88092444101895
26440113,26440,구랑동,eup-myeon-dong,35.12744960441417,128.85370777389534
26440114,26440,지사동,eup-myeon-dong,35.14429868966125,128.82374881370595
26440115,26440,미음동,eup-myeon-dong,35.15367530262725,128.86077785639804
26440116,26440,범방동,eup-myeon-dong,35.155891299808275,128.87732273292517
26440117,26440,신호동,eup-myeon-dong,35.081985112727864,128.8733253526517
26440118,26440,동선동,eup-myeon-dong,35.04472770820276,128.8343671516888
26440119,26440,성북동,eup-myeon-dong,35.06855290418022,128.81312778577922
26440120,26440,눌차동,eup-myeon-dong,35.067962094222395,128.84708931206183
26440121,26440,천성동,eup-myeon-dong,35.02950157853697,128.8026096925579
26440122,26440,대항동,eup-myeon-dong,35.00696561903704,128.83010632140136
26470,26,연제구,si-gun-gu,35.178854076053895,129.08124905975643
26470101,26470,거제동,eup-myeon-dong,35.18733150455107,129.06878752825125
26470102,26470,연산동,eup-myeon-dong,35.17580250140223,129.09357443624927
26500,26,수영구,si-gun-gu,35.16112601494885,129.1132933730317
26500101,26500,망미동,eup-myeon-dong,35.1742458379903,129.10637015924783
26500102,26500,수영동,eup-myeon-dong,35.16978438610484,129.11805876816769
26500103,26500,민락동,eup-myeon-dong,35.16039636973295,129.12646098815628
26500104,26500,광안동,eup-myeon-dong,35.159727921188875,129.1079278138274
26500105,26500,남천동,eup-myeon-dong,35.14379377285033,129.1094652490146
26530,26,사상구,si-gun-gu,35.15918995775912,128.98926486184862
26530101,26530,삼락동,eup-myeon-dong,35.17470893594087,128.97488819823172
26530102,26530,모라동,eup-myeon-dong,35.18473463525346,129.00125330947498
26530103,26530,덕포동,eup-myeon-dong,35.17462159861054,128.98916285488008
26530104,26530,괘법동,eup-myeon-dong,35.16637036846325,128.99219239300825
26530105,26530,감전동,eup-myeon-dong,35.14665616233283,128.98246324962764
26530106,26530,주례동,eup-myeon-dong,35.1541339482782,129.00428908464926
26530107,26530,학장동,eup-myeon-dong,35.13749908018474,128.98838154965355
26530108,26530,엄궁동,eup-myeon-dong,35.13561900938822,128.97262121004792
26710,26,기장군,si-gun-gu,35.28532865476944,129.2070832280608
26710250,26710,기장읍,eup-myeon-dong,35.22550827273167,129.20546693824286
26710253,26710,장안읍,eup-myeon-dong,35.348301180517325,129.24959963658836
26710256,26710,정관읍,eup-myeon-dong,35.34018348346963,129.1759201957587
26710259,26710,일광읍,eup-myeon-dong,35.282182411738546,129.22109040469093
26710330,26710,철마면,eup-myeon-dong,35.28109562576187,129.15211874748533
27,,대구광역시,si-do,35.96688817711268,128.62583618593436
27110,27,중구,si-gun-gu,35.867205752918245,128.59431006907784
27110101,27110,동인동1가,eup-myeon-dong,35.87239147142223,128.603681981209
27110102,27110,동인동2가,eup-myeon-dong,35.869070717895866,128.60320858685532
27110103,27110,동인동3가,eup-myeon-dong,35.87216171678727,128.6102400876531
27110104,27110,동인동4가,eup-myeon-dong,35.8677266513244,128.610524974145
27110105,27110,삼덕동1가,eup-myeon-dong,35.86612928483898,128.597589610854
27110106,27110,삼덕동2가,eup-myeon-dong,35.86549769620139,128.6028221329105
27110107,27110,삼덕동3가,eup-myeon-dong,35.86432283654131,128.6093043699409
27110108,27110,봉산동,eup-myeon-dong,35.86345296789651,128.59759634978707
27110109,27110,장관동,eup-myeon-dong,35.8687689572601,128.59061846571097
27110110,27110,상서동,eup-myeon-dong,35.87046748593045,128.59007372363232
27110111,27110,수동,eup-myeon-dong,35.86977042348583,128.58924697568978
27110112,27110,덕산동,eup-myeon-dong,35.865926227199566,128.59289517548166
27110113,27110,종로1가,eup-myeon-dong,35.87045138525502,128.5912181916741
27110114,27110,종로2가,eup-myeon-dong,35.86842703462642,128.59198351687897
27110115,27110,사일동,eup-myeon-dong,35.87024895668205,128.59455111168353
27110116,27110,동일동,eup-myeon-dong,35.869790979192224,128.5927691304648
27110117,27110,남일동,eup-myeon-dong,35.86968336245104,128.5933700084385
27110118,27110,전동,eup-myeon-dong,35.87072343151371,128.5928361318166
27110119,27110,동성로3가,eup-myeon-dong,35.86763593487457,128.59372793216426
27110120,27110,동문동,eup-myeon-dong,35.872025835683274,128.59842698649652
27110121,27110,문화동,eup-myeon-dong,35.87154865398955,128.59737685496847
27110122,27110,공평동,eup-myeon-dong,35.86962745619746,128.59801004527776
27110123,27110,동성로2가,eup-myeon-dong,35.87016288315503,128.5958159765658
27110124,27110,태평로1가,eup-myeon-dong,35.875073805418154,128.59809870870936
27110125,27110,교동,eup-myeon-dong,35.8732848873486,128.59873053748106
27110126,27110,용덕동,eup-myeon-dong,35.87402243404997,128.59672343173168
27110127,27110,상덕동,eup-myeon-dong,35.873750446491115,128.59794661795246
27110128,27110,완전동,eup-myeon-dong,35.8725033039393,128.59931152151353
27110129,27110,도원동,eup-myeon-dong,35.87662837474665,128.5834491067164
27110130,27110,수창동,eup-myeon-dong,35.87562985499419,128.58617781726198
27110131,27110,태평로3가,eup-myeon-dong,35.876631607052815,128.58589633610953
27110132,27110,인교동,eup-myeon-dong,35.87294797738723,128.58422260240513
27110133,27110,서야동,eup-myeon-dong,35.87319389526844,128.58583972231824
27110134,27110,서성로1가,eup-myeon-dong,35.87259322379387,128.58711444398858
27110135,27110,시장북로,eup-myeon-dong,35.871968879340415,128.58261680014994
27110136,27110,하서동,eup-myeon-dong,35.870258868230465,128.58819963001102
27110137,27110,남성로,eup-myeon-dong,35.868463059939344,128.58962704236285
27110138,27110,계산동1가,eup-myeon-dong,35.86924607518339,128.5861188674079
27110139,27110,계산동2가,eup-myeon-dong,35.867521486409586,128.58970516917026
27110140,27110,동산동,eup-myeon-dong,35.86836619096382,128.5849069878003
27110141,27110,서문로2가,eup-myeon-dong,35.87106055234004,128.58606733835904
27110142,27110,서성로2가,eup-myeon-dong,35.87013381871121,128.58732586795497
27110143,27110,포정동,eup-myeon-dong,35.87181526843024,128.59325630408614
27110144,27110,서문로1가,eup-myeon-dong,35.871698938734646,128.58916729023815
27110145,27110,서내동,eup-myeon-dong,35.87263985356208,128.58874861358612
27110146,27110,북성로2가,eup-myeon-dong,35.87395735592209,128.58934074467544
27110147,27110,대안동,eup-myeon-dong,35.87305835129594,128.59147977057967
27110148,27110,동성로1가,eup-myeon-dong,35.873266528977354,128.5958333089565
27110149,27110,태평로2가,eup-myeon-dong,35.87577459180153,128.59208881339336
27110150,27110,북성로1가,eup-myeon-dong,35.87433051507837,128.59356084870348
27110151,27110,화전동,eup-myeon-dong,35.87316199998122,128.59492902384596
27110152,27110,향촌동,eup-myeon-dong,35.87322901047304,128.5936934892179
27110153,27110,북내동,eup-myeon-dong,35.87306964371167,128.58973521142173
27110154,27110,대신동,eup-myeon-dong,35.86817384370249,128.5781927670714
27110155,27110,달성동,eup-myeon-dong,35.87570457928743,128.57878432072573
27110156,27110,남산동,eup-myeon-dong,35.86141935469594,128.58556187774406
27110157,27110,대봉동,eup-myeon-dong,35.85945440717661,128.60179240600482
27140,27,동구,si-gun-gu,35.933662881464315,128.6830259522003
27140101,27140,신암동,eup-myeon-dong,35.88435438356538,128.62397034636393
27140102,27140,신천동,eup-myeon-dong,35.872605804215155,128.6218803592975
27140103,27140,효목동,eup-myeon-dong,35.87998747453881,128.6449486578713
27140104,27140,평광동,eup-myeon-dong,35.9308630254492,128.70566825790763
27140105,27140,봉무동,eup-myeon-dong,35.92734715514186,128.64282299515202
27140106,27140,불로동,eup-myeon-dong,35.90570411752199,128.63900348610173
27140107,27140,도동,eup-myeon-dong,35.92590260473541,128.6640311644262
27140108,27140,지저동,eup-myeon-dong,35.89887732522759,128.64369488474742
27140109,27140,입석동,eup-myeon-dong,35.898677097349996,128.651585329066
27140110,27140,검사동,eup-myeon-dong,35.89593187392399,128.6559149899399
27140111,27140,방촌동,eup-myeon-dong,35.885213344140446,128.667122431483
27140112,27140,둔산동,eup-myeon-dong,35.908231030427736,128.68876268832804
27140113,27140,부동,eup-myeon-dong,35.89133254926297,128.68942955172906
27140114,27140,신평동,eup-myeon-dong,35.88332864763049,128.68601337478066
27140115,27140,서호동,eup-myeon-dong,35.86514706370166,128.70882792232942
27140116,27140,동호동,eup-myeon-dong,35.86655263390108,128.71859644890566
27140117,27140,신기동,eup-myeon-dong,35.86670677298198,128.7048245533722
27140118,27140,율하동,eup-myeon-dong,35.86616259384232,128.69226512333643
27140119,27140,용계동,eup-myeon-dong,35.87486470111416,128.68770206355612
27140120,27140,율암동,eup-myeon-dong,35.88045294741906,128.7045429639232
27140121,27140,상매동,eup-myeon-dong,35.90779104273207,128.71083926112107
27140122,27140,매여동,eup-myeon-dong,35.91088806235855,128.72560769838498
27140123,27140,각산동,eup-myeon-dong,35.88457909463273,128.7172619430491
27140124,27140,신서동,eup-myeon-dong,35.8870038511277,128.73068374766638
27140125,27140,동내동,eup-myeon-dong,35.890303996870465,128.742607906684
27140126,27140,괴전동,eup-myeon-dong,35.87203452309822,128.7388776315155
27140127,27140,금강동,eup-myeon-dong,35.858420008340914,128.73706439138337
27140128,27140,대림동,eup-myeon-dong,35.86844451650571,128.74808650132832
27140129,27140,사복동,eup-myeon-dong,35.87182554897085,128.75255114851066
27140130,27140,숙천동,eup-myeon-dong,35.88078589250535,128.75229115975145
27140131,27140,내곡동,eup-myeon-dong,35.89912943190441,128.75101635578773
27140132,27140,능성동,eup-myeon-dong,35.9676293997544,128.73513894523506
27140133,27140,진인동,eup-myeon-dong,35.960415101350456,128.7232139499676
27140134,27140,도학동,eup-myeon-dong,35.98848069483451,128.7139371197036
27140135,27140,백안동,eup-myeon-dong,35.95575715723497,128.69595190421057
27140136,27140,미곡동,eup-myeon-dong,35.967865347126,128.68439812343985
27140137,27140,용수동,eup-myeon-dong,35.991317037707745,128.68276238918122
27140138,27140,신무동,eup-myeon-dong,35.997329292964395,128.66965453528417
27140139,27140,미대동,eup-myeon-dong,35.95769375138676,128.67324532112846
27140140,27140,내동,eup-myeon-dong,35.965964464790716,128.6540191437079
27140141,27140,신용동,eup-myeon-dong,35.984777235404955,128.64948784683128
27140142,27140,중대동,eup-myeon-dong,35.987337420860946,128.63442238855714
27140143,27140,송정동,eup-myeon-dong,35.99469677688474,128.6255650230384
27140144,27140,덕곡동,eup-myeon-dong,35.98964179486198,128.6163531730347
27140145,27140,지묘동,eup-myeon-dong,35.952208382569744,128.64550693053627
27170,27,서구,si-gun-gu,35.87506642052121,128.549128684076
27170101,27170,내당동,eup-myeon-dong,35.86261380318476,128.56157437623398
27170102,27170,비산동,eup-myeon-dong,35.881153574474425,128.55614161848527
27170103,27170,평리동,eup-myeon-dong,35.873007484353394,128.55549215881356
27170104,27170,상리동,eup-myeon-dong,35.87660015274463,128.52500055949315
27170105,27170,중리동,eup-myeon-dong,35.86285584772561,128.53987709311804
27170106,27170,이현동,eup-myeon-dong,35.87587122855899,128.53894758640854
27170107,27170,원대동1가,eup-myeon-dong,35.881956957449574,128.57686936189816
27170108,27170,원대동2가,eup-myeon-dong,35.884426638556135,128.58010595613183
27170109,27170,원대동3가,eup-myeon-dong,35.88549601904788,128.57402589097447
27200,27,남구,si-gun-gu,35.83376526030542,128.58213430073215
27200101,27200,이천동,eup-myeon-dong,35.850633345139926,128.60136449031108
27200102,27200,봉덕동,eup-myeon-dong,35.828826094571966,128.59478285998418
27200103,27200,대명동,eup-myeon-dong,35.8356855555093,128.57560140353866
27230,27,북구,si-gun-gu,35.93086074786062,128.568554917611
27230101,27230,칠성동1가,eup-myeon-dong,35.8762131839666,128.6057653641252
27230102,27230,칠성동2가,eup-myeon-dong,35.8805449256715,128.5941006175844
27230103,27230,고성동1가,eup-myeon-dong,35.87869716553905,128.58479985893067
27230104,27230,고성동2가,eup-myeon-dong,35.880179826252075,128.5845253787088
27230105,27230,고성동3가,eup-myeon-dong,35.88244346875673,128.58544840236766
27230106,27230,침산동,eup-myeon-dong,35.8938271460333,128.58954023380136
27230107,27230,노원동1가,eup-myeon-dong,35.88919620319901,128.57959600089094
27230108,27230,노원동2가,eup-myeon-dong,35.89112808274467,128.57348605985624
27230109,27230,노원동3가,eup-myeon-dong,35.89618599578317,128.56553386733145
27230110,27230,대현동,eup-myeon-dong,35.883278930085886,128.60929107783903
27230111,27230,산격동,eup-myeon-dong,35.9004938292899,128.6054148331833
27230112,27230,복현동,eup-myeon-dong,35.898237548755986,128.62205702413286
27230113,27230,검단동,eup-myeon-dong,35.917784377525344,128.6195314082969
27230114,27230,동변동,eup-myeon-dong,35.92458613743961,128.61381247126633
27230115,27230,서변동,eup-myeon-dong,35.9254501550993,128.5956786176969
27230116,27230,조야동,eup-myeon-dong,35.91655134415845,128.57617613943773
27230117,27230,노곡동,eup-myeon-dong,35.910894136625544,128.56172210069292
27230118,27230,읍내동,eup-myeon-dong,35.95615805708066,128.542012943524
27230119,27230,동호동,eup-myeon-dong,35.96630625473519,128.56831803574983
27230120,27230,학정동,eup-myeon-dong,35.95320458584132,128.56557810976804
27230121,27230,도남동,eup-myeon-dong,35.97107175066395,128.58928366019524
27230122,27230,국우동,eup-myeon-dong,35.946091947800575,128.58544228119575
27230123,27230,구암동,eup-myeon-dong,35.93214407458294,128.5659640817421
27230124,27230,동천동,eup-myeon-dong,35.93887545607345,128.55921152233788
27230125,27230,관음동,eup-myeon-dong,35.94572875100059,128.5412937000927
27230126,27230,태전동,eup-myeon-dong,35.9213345060164,128.5439984698972
27230127,27230,매천동,eup-myeon-dong,35.9124694635607,128.54044278326649
27230128,27230,팔달동,eup-myeon-dong,35.89898765014179,128.54129372367402
27230129,27230,금호동,eup-myeon-dong,35.904568096964624,128.52786046862101
27230130,27230,사수동,eup-myeon-dong,35.9015480451601,128.5130072963347
27230131,27230,연경동,eup-myeon-dong,35.96075269528838,128.6136510371616
27260,27,수성구,si-gun-gu,35.83411798212799,128.65930054282035
27260101,27260,범어동,eup-myeon-dong,35.85709675377328,128.62969685049265
27260102,27260,만촌동,eup-myeon-dong,35.85972841486029,128.6461314152162
27260103,27260,수성동1가,eup-myeon-dong,35.85451275915901,128.61095017337664
27260104,27260,수성동2가,eup-myeon-dong,35.85534780296995,128.61545228767346
27260105,27260,수성동3가,eup-myeon-dong,35.85513651087342,128.6190908029621
27260106,27260,수성동4가,eup-myeon-dong,35.863764789443906,128.61586531982118
27260107,27260,황금동,eup-myeon-dong,35.84050006752237,128.6320302683755
27260108,27260,중동,eup-myeon-dong,35.84491312272303,128.61177255361662
27260109,27260,상동,eup-myeon-dong,35.832902877168834,128.61127582010198
27260110,27260,파동,eup-myeon-dong,35.81515900075319,128.61582312559352
27260111,27260,두산동,eup-myeon-dong,35.8280243294149,128.61966293598516
27260112,27260,지산동,eup-myeon-dong,35.82405192026218,128.63859506359802
27260113,27260,범물동,eup-myeon-dong,35.809961020271956,128.6574334587737
27260114,27260,시지동,eup-myeon-dong,35.84315151855286,128.69368778020043
27260115,27260,매호동,eup-myeon-dong,35.85069847952576,128.70817912552127
27260116,27260,성동,eup-myeon-dong,35.85177806782791,128.7208237671495
27260117,27260,사월동,eup-myeon-dong,35.83973438278487,128.72014925581686
27260118,27260,신매동,eup-myeon-dong,35.83538713370196,128.71259371775028
27260119,27260,욱수동,eup-myeon-dong,35.81203332405323,128.6971739716341
27260120,27260,노변동,eup-myeon-dong,35.83136401135661,128.69660104400404
27260122,27260,삼덕동,eup-myeon-dong,35.82832542142515,128.6682562161807
27260123,27260,연호동,eup-myeon-dong,35.84193905685727,128.67215124482146
27260124,27260,이천동,eup-myeon-dong,35.84354107976585,128.6582378459688
27260125,27260,고모동,eup-myeon-dong,35.86318227821401,128.66903572850168
27260126,27260,가천동,eup-myeon-dong,35.851714088632264,128.68768709477365
27260127,27260,대흥동,eup-myeon-dong,35.82191382121484,128.6833403825525
27290,27,달서구,si-gun-gu,35.82126204805596,128.52815655955226
27290101,27290,성당동,eup-myeon-dong,35.84524105457712,128.55888687555546
27290102,27290,두류동,eup-myeon-dong,35.854250083629424,128.5610137465015
27290104,27290,파호동,eup-myeon-dong,35.845823633229244,128.47338573618651
27290105,27290,호림동,eup-myeon-dong,35.834727292394845,128.48229560607402
27290106,27290,갈산동,eup-myeon-dong,35.84230586697977,128.50264471158454
27290107,27290,신당동,eup-myeon-dong,35.85612230173159,128.49134294445827
27290108,27290,이곡동,eup-myeon-dong,35.85938410766177,128.50844696703655
27290109,27290,장동,eup-myeon-dong,35.840832657986354,128.51716649334168
27290110,27290,장기동,eup-myeon-dong,35.84594798194942,128.52463011410197
27290111,27290,용산동,eup-myeon-dong,35.85916040487169,128.52420192124907
27290112,27290,죽전동,eup-myeon-dong,35.85420927575461,128.53711833928537
27290113,27290,감삼동,eup-myeon-dong,35.85000903692355,128.5397993425537
27290114,27290,본리동,eup-myeon-dong,35.84040682076251,128.53801498927248
27290115,27290,상인동,eup-myeon-dong,35.81509245789195,128.55834145022033
27290116,27290,도원동,eup-myeon-dong,35.79146835752721,128.55711188306455
27290117,27290,진천동,eup-myeon-dong,35.81376118501582,128.52469594259586
27290118,27290,유천동,eup-myeon-dong,35.815223670459176,128.51341931894717
27290119,27290,대천동,eup-myeon-dong,35.82470903898306,128.5045595746367
27290120,27290,월성동,eup-myeon-dong,35.82766618316404,128.52894066313127
27290121,27290,월암동,eup-myeon-dong,35.828360754548456,128.50667968893106
27290122,27290,송현동,eup-myeon-dong,35.82673892995474,128.55601350200394
27290123,27290,대곡동,eup-myeon-dong,35.79866019853483,128.52477897555858
27290124,27290,본동,eup-myeon-dong,35.83149182315754,128.53853966362533
27290125,27290,호산동,eup-myeon-dong,35.853838587315224,128.4829004865337
27710,27,달성군,si-gun-gu,35.77484466738443,128.52348039574917
27710250,27710,화원읍,eup-myeon-dong,35.78631984948966,128.51321314259516
27710253,27710,논공읍,eup-myeon-dong,35.756068260853,128.43773131550984
27710256,27710,다사읍,eup-myeon-dong,35.86670284697283,128.47181007066825
27710259,27710,유가읍,eup-myeon-dong,35.6818121968989,128.49002865723503
27710262,27710,옥포읍,eup-myeon-dong,35.76542948150984,128.47494471656307
27710265,27710,현풍읍,eup-myeon-dong,35.68781159258154,128.4181601374213
27710310,27710,가창면,eup-myeon-dong,35.75573154184367,128.60747157176806
27710330,27710,하빈면,eup-myeon-dong,35.896851192979206,128.43004073626227
27710380,27710,구지면,eup-myeon-dong,35.657620564116485,128.4052711411066
27720,27,군위군,si-gun-gu,36.16727161897521,128.6553178860657
27720250,27720,군위읍,eup-myeon-dong,36.23510903577784,128.58040139331436
27720310,27720,소보면,eup-myeon-dong,36.25605923545912,128.47395821878357
27720320,27720,효령면,eup-myeon-dong,36.142041587990406,128.6021806901743
27720330,27720,부계면,eup-myeon-dong,36.066190796808584,128.66180386063593
27720340,27720,우보면,eup-myeon-dong,36.168439314885546,128.65884154208297
27720350,27720,의흥면,eup-myeon-dong,36.16247250283922,128.7338445471877
27720360,27720,산성면,eup-myeon-dong,36.09351165489811,128.71127291485948
27720370,27720,삼국유사면,eup-myeon-dong,36.151779648249686,128.81899203670554
28,,인천광역시,si-do,37.452079068037875,125.70170221669181
28110,28,중구,si-gun-gu,37.45020130961301,126.49994371328279
28110101,28110,중앙동1가,eup-myeon-dong,37.473454104680165,126.6204571389213
28110102,28110,중앙동2가,eup-myeon-dong,37.472784672965474,126.6217380500569
28110103,28110,중앙동3가,eup-myeon-dong,37.47199098159507,126.6228825820377
28110104,28110,중앙동4가,eup-myeon-dong,37.47130679071734,126.62410917401219
28110105,28110,해안동1가,eup-myeon-dong,37.47284583633508,126.61994376623736
28110106,28110,해안동2가,eup-myeon-dong,37.47218070985461,126.62119170508176
28110107,28110,해안동3가,eup-myeon-dong,37.471355490534684,126.62229853819576
28110108,28110,해안동4가,eup-myeon-dong,37.470671335382164,126.62350811221518
28110109,28110,관동1가,eup-myeon-dong,37.47368036508695,126.62158093945334
28110110,28110,관동2가,eup-myeon-dong,37.47274217903954,126.62352560852906
28110111,28110,관동3가,eup-myeon-dong,37.47205832918911,126.6247805940568
28110112,28110,항동1가,eup-myeon-dong,37.47414091818857,126.61756032733098
28110113,28110,항동2가,eup-myeon-dong,37.472305213824356,126.61760857134394
28110114,28110,항동3가,eup-myeon-dong,37.47205590971835,126.61937693707685
28110115,28110,항동4가,eup-myeon-dong,37.47139873193762,126.62051610855809
28110116,28110,항동5가,eup-myeon-dong,37.47070630815796,126.6217249611918
28110117,28110,항동6가,eup-myeon-dong,37.470031142532974,126.62289548621402
28110118,28110,항동7가,eup-myeon-dong,37.450813179198406,126.61197212309074
28110119,28110,송학동1가,eup-myeon-dong,37.47452666607467,126.62253664173119
28110120,28110,송학동2가,eup-myeon-dong,37.47385721556526,126.62469148260394
28110121,28110,송학동3가,eup-myeon-dong,37.47340843052114,126.62585023138911
28110122,28110,사동,eup-myeon-dong,37.468420689909806,126.62523347337762
28110123,28110,신생동,eup-myeon-dong,37.467606609405934,126.6272446284683
28110124,28110,신포동,eup-myeon-dong,37.471075040102335,126.62674676053183
28110125,28110,답동,eup-myeon-dong,37.46956540924711,126.62908004368009
28110126,28110,신흥동1가,eup-myeon-dong,37.46692946245462,126.63161226279676
28110127,28110,신흥동2가,eup-myeon-dong,37.46594359760151,126.63392250336733
28110128,28110,신흥동3가,eup-myeon-dong,37.448248213953306,126.62596093356755
28110129,28110,선화동,eup-myeon-dong,37.46597050267627,126.63747480709152
28110130,28110,유동,eup-myeon-dong,37.469636581575784,126.63700464416561
28110131,28110,율목동,eup-myeon-dong,37.470370128560916,126.63399722897793
28110132,28110,도원동,eup-myeon-dong,37.4671590495777,126.6403196797969
28110133,28110,내동,eup-myeon-dong,37.473436126186044,126.6275765235689
28110134,28110,경동,eup-myeon-dong,37.472181996227135,126.63238301914674
28110135,28110,용동,eup-myeon-dong,37.473219960292965,126.63119205946913
28110136,28110,인현동,eup-myeon-dong,37.474892439645714,126.63208398979577
28110137,28110,전동,eup-myeon-dong,37.47717823525102,126.62662165987024
28110138,28110,북성동1가,eup-myeon-dong,37.47179079142586,126.60578808068317
28110139,28110,북성동2가,eup-myeon-dong,37.47697087881939,126.61845547021879
28110140,28110,북성동3가,eup-myeon-dong,37.476112051789116,126.62076051798081
28110141,28110,선린동,eup-myeon-dong,37.474488445516315,126.61819983974614
28110142,28110,송월동1가,eup-myeon-dong,37.47979559244666,126.62390871129453
28110143,28110,송월동2가,eup-myeon-dong,37.47903798785666,126.61962990267179
28110144,28110,송월동3가,eup-myeon-dong,37.47822539753696,126.62116571086023
28110145,28110,중산동,eup-myeon-dong,37.51090774579572,126.56137254297437
28110146,28110,운남동,eup-myeon-dong,37.48588745845137,126.52988313206131
28110147,28110,운서동,eup-myeon-dong,37.4642582940873,126.44493851895709
28110148,28110,운북동,eup-myeon-dong,37.517719609965525,126.5108412712012
28110149,28110,을왕동,eup-myeon-dong,37.45496851098076,126.38098699407661
28110150,28110,남북동,eup-myeon-dong,37.45178811186962,126.41759635541356
28110151,28110,덕교동,eup-myeon-dong,37.42873896775228,126.41777227565103
28110152,28110,무의동,eup-myeon-dong,37.384644946487754,126.45113131535962
28140,28,동구,si-gun-gu,37.483527949062335,126.63030580903725
28140101,28140,만석동,eup-myeon-dong,37.48898069700164,126.60727861860651
28140102,28140,화수동,eup-myeon-dong,37.485327544086594,126.6305251159262
28140103,28140,송현동,eup-myeon-dong,37.48481320573015,126.64135402503254
28140104,28140,화평동,eup-myeon-dong,37.47880103722372,126.63079381010138
28140105,28140,창영동,eup-myeon-dong,37.47065709107804,126.6406971407373
28140106,28140,금곡동,eup-myeon-dong,37.47240399929154,126.63945689250312
28140107,28140,송림동,eup-myeon-dong,37.478629605015286,126.65455710733656
28177,28,미추홀구,si-gun-gu,37.45701115519546,126.6659748054798
28177101,28177,숭의동,eup-myeon-dong,37.4639878461781,126.65109849457522
28177102,28177,용현동,eup-myeon-dong,37.451378786081435,126.64861948501493
28177103,28177,학익동,eup-myeon-dong,37.43924186496807,126.6537928179425
28177104,28177,도화동,eup-myeon-dong,37.47040729780729,126.6640821337595
28177105,28177,주안동,eup-myeon-dong,37.458322613141064,126.67989477526734
28177106,28177,관교동,eup-myeon-dong,37.44312156311297,126.69394869444415
28177107,28177,문학동,eup-myeon-dong,37.436732847125036,126.68669784529034
28185,28,연수구,si-gun-gu,37.39061640052212,126.64485168195905
28185101,28185,옥련동,eup-myeon-dong,37.42481587374575,126.6480397075421
28185102,28185,선학동,eup-myeon-dong,37.42826850862862,126.69609355289043
28185103,28185,연수동,eup-myeon-dong,37.4190325062725,126.68373085636746
28185104,28185,청학동,eup-myeon-dong,37.42463975288027,126.66740366618691
28185105,28185,동춘동,eup-myeon-dong,37.40492295155276,126.66332138606727
28185106,28185,송도동,eup-myeon-dong,37.3843748813196,126.64044058814692
28200,28,남동구,si-gun-gu,37.430626067651446,126.72392934766003
28200101,28200,구월동,eup-myeon-dong,37.44767602822394,126.71119415670758
28200102,28200,간석동,eup-myeon-dong,37.46712592695995,126.70402832086114
28200103,28200,만수동,eup-myeon-dong,37.45303754701688,126.73571794999529
28200104,28200,장수동,eup-myeon-dong,37.45883357726674,126.76057800231614
28200105,28200,서창동,eup-myeon-dong,37.43193303518274,126.74884488701304
28200106,28200,운연동,eup-myeon-dong,37.44014964641404,126.76466860806431
28200107,28200,남촌동,eup-myeon-dong,37.4240189993631,126.70940672789041
28200108,28200,수산동,eup-myeon-dong,37.43736164162442,126.72517462949688
28200109,28200,도림동,eup-myeon-dong,37.41906882066546,126.72622869571526
28200110,28200,논현동,eup-myeon-dong,37.4037772171327,126.72024741707311
28200111,28200,고잔동,eup-myeon-dong,37.39607542836568,126.69499391333585
28237,28,부평구,si-gun-gu,37.49428187760827,126.72550098896573
28237101,28237,부평동,eup-myeon-dong,37.4887334746995,126.72239405962286
28237102,28237,십정동,eup-myeon-dong,37.47731254624338,126.69829201143385
28237103,28237,산곡동,eup-myeon-dong,37.499551810858435,126.7023086596857
28237104,28237,청천동,eup-myeon-dong,37.51365582285095,126.70273425672278
28237105,28237,삼산동,eup-myeon-dong,37.51525171586974,126.74540333317911
28237106,28237,갈산동,eup-myeon-dong,37.51542840771613,126.72635484952322
28237107,28237,부개동,eup-myeon-dong,37.491980562487605,126.73587586124856
28237108,28237,일신동,eup-myeon-dong,37.478768066265744,126.74150036142873
28237109,28237,구산동,eup-myeon-dong,37.474610949772455,126.75351662348595
28245,28,계양구,si-gun-gu,37.55857654509083,126.73737561897468
28245101,28245,효성동,eup-myeon-dong,37.532782783669276,126.70102951111366
28245102,28245,계산동,eup-myeon-dong,37.5432117093587,126.72482911981197
28245103,28245,작전동,eup-myeon-dong,37.53011454429249,126.730497538197
28245104,28245,서운동,eup-myeon-dong,37.5310965859947,126.751080071259
28245105,28245,임학동,eup-myeon-dong,37.54681961448135,126.7338383920782
28245106,28245,용종동,eup-myeon-dong,37.54112840013309,126.7449581705194
28245107,28245,병방동,eup-myeon-dong,37.54532724946661,126.74941872259093
28245108,28245,방축동,eup-myeon-dong,37.55469267325441,126.73345809339936
28245109,28245,박촌동,eup-myeon-dong,37.55077746099581,126.75158756977766
28245110,28245,동양동,eup-myeon-dong,37.55704168286435,126.76156115057762
28245111,28245,귤현동,eup-myeon-dong,37.56689056838142,126.74991562918451
28245112,28245,상야동,eup-myeon-dong,37.57466397089393,126.77361516865386
28245113,28245,하야동,eup-myeon-dong,37.58057319881847,126.78533495699457
28245114,28245,평동,eup-myeon-dong,37.58306155041309,126.77111837726648
28245115,28245,노오지동,eup-myeon-dong,37.57945130022972,126.75819907551188
28245116,28245,선주지동,eup-myeon-dong,37.57912782819787,126.74855088034985
28245117,28245,이화동,eup-myeon-dong,37.586705380625695,126.73848612705923
28245118,28245,오류동,eup-myeon-dong,37.586001943876326,126.72806626796911
28245119,28245,갈현동,eup-myeon-dong,37.581316159243215,126.72273754471739
28245120,28245,둑실동,eup-myeon-dong,37.57330967016293,126.69799919355607
28245121,28245,목상동,eup-myeon-dong,37.5649274465644,126.70859369224604
28245122,28245,다남동,eup-myeon-dong,37.56303098780825,126.72399352241636
28245123,28245,장기동,eup-myeon-dong,37.575713889235246,126.73564784780609
28260,28,서구,si-gun-gu,37.55521170738313,126.63978686226301
28260101,28260,백석동,eup-myeon-dong,37.578962899803884,126.6663142345548
28260102,28260,시천동,eup-myeon-dong,37.56997897211895,126.68506485430352
28260103,28260,검암동,eup-myeon-dong,37.56321654780149,126.67554396626507
28260104,28260,경서동,eup-myeon-dong,37.55621363915163,126.65292651355568
28260105,28260,공촌동,eup-myeon-dong,37.551186126507474,126.69258422408805
28260106,28260,연희동,eup-myeon-dong,37.547411281112986,126.6653623059023
28260107,28260,심곡동,eup-myeon-dong,37.54136115267008,126.67809371952458
28260108,28260,가정동,eup-myeon-dong,37.52652152127456,126.67588782029736
28260109,28260,신현동,eup-myeon-dong,37.51952902652154,126.66658093260921
28260110,28260,석남동,eup-myeon-dong,37.506302778281466,126.66421323917498
28260111,28260,원창동,eup-myeon-dong,37.537380419013246,126.60826254337243
28260112,28260,가좌동,eup-myeon-dong,37.48819546092919,126.67019343110798
28260113,28260,마전동,eup-myeon-dong,37.607975128326224,126.66954323603093
28260114,28260,당하동,eup-myeon-dong,37.58734066683196,126.69082976099355
28260115,28260,원당동,eup-myeon-dong,37.5951178041759,126.70798113675343
28260117,28260,대곡동,eup-myeon-dong,37.625050565357895,126.6661951560539
28260118,28260,금곡동,eup-myeon-dong,37.61586176164861,126.64291291736771
28260119,28260,오류동,eup-myeon-dong,37.58057530874642,126.62328015341822
28260120,28260,왕길동,eup-myeon-dong,37.59185615678743,126.65084992115015
28260121,28260,불로동,eup-myeon-dong,37.61047765089802,126.6902782052725
28260122,28260,청라동,eup-myeon-dong,37.53596462029893,126.63009331079489
28710,28,강화군,si-gun-gu,37.7058068470794,126.25116602937811
28710250,28710,강화읍,eup-myeon-dong,37.75877169333178,126.4819396177995
28710310,28710,선원면,eup-myeon-dong,37.713625123181146,126.48134693981586
28710320,28710,불은면,eup-myeon-dong,37.68113348592461,126.48017806482271
28710330,28710,길상면,eup-myeon-dong,37.6264413129328,126.50407814584719
28710340,28710,화도면,eup-myeon-dong,37.619806203388336,126.42064981578343
28710350,28710,양도면,eup-myeon-dong,37.67352932564509,126.43164332259784
28710360,28710,내가면,eup-myeon-dong,37.71989391468937,126.39674124149535
28710370,28710,하점면,eup-myeon-dong,37.763763949736045,126.3999167989268
28710380,28710,양사면,eup-myeon-dong,37.80268676422034,126.40071470405564
28710390,28710,송해면,eup-myeon-dong,37.778105537337176,126.45751526186633
28710400,28710,교동면,eup-myeon-dong,37.784434461449855,126.26915456118192
28710410,28710,삼산면,eup-myeon-dong,37.69716400527494,126.29461967900744
28710420,28710,서도면,eup-myeon-dong,37.65442868949138,126.11483519134363
28720,28,옹진군,si-gun-gu,37.45207920225975,125.58087136016746
28720310,28720,북도면,eup-myeon-dong,37.518187482646894,126.25593401012992
28720330,28720,백령면,eup-myeon-dong,37.94970668334951,124.67795485950225
28720340,28720,대청면,eup-myeon-dong,37.80006671770895,124.71675159597524
28720350,28720,덕적면,eup-myeon-dong,37.10486820410719,125.96866093340535
28720360,28720,영흥면,eup-myeon-dong,37.230440589870504,126.45695498243396
28720370,28720,자월면,eup-myeon-dong,37.206480374478105,126.20477390622125
28720380,28720,연평면,eup-myeon-dong,37.64232858201227,125.69948003922411
29,,광주광역시,si-do,35.15479970137254,126.83348903475168
29110,29,동구,si-gun-gu,35.11897850451035,126.95573575509167
29110101,29110,대인동,eup-myeon-dong,35.154079610121265,126.91526831699433
29110102,29110,금남로5가,eup-myeon-dong,35.1527096586806,126.91242514903718
29110103,29110,충장로5가,eup-myeon-dong,35.15142358018458,126.91116001943558
29110104,29110,수기동,eup-myeon-dong,35.15043470549354,126.90962228911997
29110105,29110,대의동,eup-myeon-dong,35.14913925059966,126.92015265866317
29110106,29110,궁동,eup-myeon-dong,35.15062419461141,126.91853616503171
29110107,29110,장동,eup-myeon-dong,35.150157898121066,126.9214162366904
29110108,29110,동명동,eup-myeon-dong,35.150640334220014,126.92511241186875
29110109,29110,계림동,eup-myeon-dong,35.15935332199619,126.92157461486251
29110110,29110,산수동,eup-myeon-dong,35.15689199327211,126.933746412056
29110111,29110,지산동,eup-myeon-dong,35.148769723216276,126.94089017528746
29110112,29110,남동,eup-myeon-dong,35.144120057392215,126.91985067112103
29110113,29110,광산동,eup-myeon-dong,35.14670888883974,126.91924443202007
29110114,29110,금동,eup-myeon-dong,35.14331101852122,126.91781320536515
29110115,29110,호남동,eup-myeon-dong,35.147610409327335,126.91260832019984
29110116,29110,불로동,eup-myeon-dong,35.145395481641174,126.91482484212472
29110117,29110,황금동,eup-myeon-dong,35.14734975330258,126.91548408394593
29110118,29110,서석동,eup-myeon-dong,35.1422334642635,126.92847142332948
29110119,29110,소태동,eup-myeon-dong,35.11882742147529,126.94757635862132
29110120,29110,용연동,eup-myeon-dong,35.10539879450981,126.98087169802673
29110121,29110,운림동,eup-myeon-dong,35.12803371886838,126.96436747363924
29110122,29110,학동,eup-myeon-dong,35.13630615632191,126.93250878931931
29110123,29110,월남동,eup-myeon-dong,35.10263444173516,126.93995842435952
29110124,29110,선교동,eup-myeon-dong,35.08487791902604,126.95279844542668
29110125,29110,내남동,eup-myeon-dong,35.08695326972415,126.9328387207326
29110126,29110,용산동,eup-myeon-dong,35.11264070372545,126.92431519268408
29110127,29110,충장로1가,eup-myeon-dong,35.14717036658705,126.91785917206872
29110128,29110,충장로2가,eup-myeon-dong,35.148051625688154,126.91648542525174
29110129,29110,충장로3가,eup-myeon-dong,35.14884850789852,126.91512019868978
29110130,29110,충장로4가,eup-myeon-dong,35.1495184155106,126.91347271787072
29110131,29110,금남로1가,eup-myeon-dong,35.14779123442141,126.91914488906926
29110132,29110,금남로2가,eup-myeon-dong,35.14875509084405,126.91745126875261
29110133,29110,금남로3가,eup-myeon-dong,35.1499491234478,126.91621279028121
29110134,29110,금남로4가,eup-myeon-dong,35.15092770671016,126.91511692874856
29140,29,서구,si-gun-gu,35.13466402803225,126.85518658022801
29140104,29140,양동,eup-myeon-dong,35.154557785583606,126.9000183181602
29140106,29140,농성동,eup-myeon-dong,35.15426948315985,126.88861142373014
29140115,29140,광천동,eup-myeon-dong,35.165191223243,126.87956103664285
29140116,29140,유촌동,eup-myeon-dong,35.16619600892703,126.85238331708706
29140117,29140,덕흥동,eup-myeon-dong,35.166525670606305,126.83574727342172
29140118,29140,쌍촌동,eup-myeon-dong,35.15466442298514,126.86257169575146
29140119,29140,화정동,eup-myeon-dong,35.14676706146261,126.87585310849249
29140120,29140,치평동,eup-myeon-dong,35.1523744660849,126.84171136587594
29140121,29140,내방동,eup-myeon-dong,35.159067206990926,126.87224482605956
29140125,29140,서창동,eup-myeon-dong,35.10894518071366,126.8233074669439
29140126,29140,세하동,eup-myeon-dong,35.119483841942596,126.83055204791732
29140127,29140,용두동,eup-myeon-dong,35.100002477732254,126.8163501089733
29140128,29140,풍암동,eup-myeon-dong,35.12423033570191,126.87427983380911
29140129,29140,벽진동,eup-myeon-dong,35.13321906804575,126.83161360285905
29140130,29140,금호동,eup-myeon-dong,35.131918430633114,126.85371699432682
29140131,29140,마륵동,eup-myeon-dong,35.14272390134593,126.84176444713857
29140132,29140,매월동,eup-myeon-dong,35.11744317857388,126.85186075345146
29140133,29140,동천동,eup-myeon-dong,35.171724509171035,126.85875728603615
29155,29,남구,si-gun-gu,35.101697218789376,126.84138245944409
29155101,29155,사동,eup-myeon-dong,35.143783986424694,126.91296801173512
29155102,29155,구동,eup-myeon-dong,35.146837896900415,126.90992887186677
29155103,29155,서동,eup-myeon-dong,35.14406325839026,126.90724630238643
29155104,29155,월산동,eup-myeon-dong,35.14421241029055,126.89538840414642
29155105,29155,백운동,eup-myeon-dong,35.13854582528536,126.90337827836025
29155106,29155,주월동,eup-myeon-dong,35.131684010942664,126.89460430186199
29155107,29155,노대동,eup-myeon-dong,35.10011558605583,126.90854835956432
29155108,29155,진월동,eup-myeon-dong,35.11555583058505,126.90053687018619
29155109,29155,덕남동,eup-myeon-dong,35.08902911625408,126.89772840191401
29155110,29155,행암동,eup-myeon-dong,35.09942084803973,126.8884149464177
29155111,29155,임암동,eup-myeon-dong,35.10154007667951,126.86902442559011
29155112,29155,송하동,eup-myeon-dong,35.11000309860943,126.88209441707572
29155113,29155,양림동,eup-myeon-dong,35.13862243011257,126.91450349448337
29155114,29155,방림동,eup-myeon-dong,35.13137389195559,126.92033461051027
29155115,29155,봉선동,eup-myeon-dong,35.12498040766772,126.91310540057594
29155116,29155,구소동,eup-myeon-dong,35.05631749518606,126.80644336757675
29155117,29155,양촌동,eup-myeon-dong,35.06521499541542,126.786069083916
29155118,29155,도금동,eup-myeon-dong,35.076023776525005,126.84513310199355
29155119,29155,승촌동,eup-myeon-dong,35.06110273122613,126.77079522006014
29155120,29155,지석동,eup-myeon-dong,35.0823517410488,126.83381286082789
29155121,29155,압촌동,eup-myeon-dong,35.09060485304059,126.83308718781461
29155122,29155,화장동,eup-myeon-dong,35.0831303616079,126.79952086997
29155123,29155,칠석동,eup-myeon-dong,35.070241376827425,126.83660221236289
29155124,29155,석정동,eup-myeon-dong,35.084852263423784,126.8151194412664
29155125,29155,신장동,eup-myeon-dong,35.05862266961314,126.8193319074104
29155126,29155,양과동,eup-myeon-dong,35.08733767701841,126.88096639250995
29155127,29155,이장동,eup-myeon-dong,35.08919175404698,126.85744961871167
29155128,29155,대지동,eup-myeon-dong,35.0730267191271,126.82002224922368
29155129,29155,원산동,eup-myeon-dong,35.092846197904066,126.85055316801538
29155130,29155,월성동,eup-myeon-dong,35.065549788474286,126.80524785853405
29170,29,북구,si-gun-gu,35.1898791800637,126.92856535829148
29170101,29170,중흥동,eup-myeon-dong,35.166573993821665,126.91245068855585
29170102,29170,유동,eup-myeon-dong,35.158282519165695,126.90541035142708
29170103,29170,누문동,eup-myeon-dong,35.15399367646751,126.90635297354999
29170104,29170,북동,eup-myeon-dong,35.15579602379432,126.9092276432973
29170105,29170,임동,eup-myeon-dong,35.1628832946556,126.89417116863487
29170106,29170,신안동,eup-myeon-dong,35.16830464580579,126.90123897860931
29170107,29170,용봉동,eup-myeon-dong,35.179497637822834,126.90099435781366
29170108,29170,동림동,eup-myeon-dong,35.182752950722076,126.85618152266431
29170109,29170,운암동,eup-myeon-dong,35.180436798093154,126.87911501887861
29170110,29170,우산동,eup-myeon-dong,35.173494245080754,126.9216992800142
29170111,29170,풍향동,eup-myeon-dong,35.165132783823125,126.92720437743068
29170112,29170,문흥동,eup-myeon-dong,35.18777762870678,126.92827480146735
29170113,29170,각화동,eup-myeon-dong,35.18315410836253,126.94137508614628
29170114,29170,두암동,eup-myeon-dong,35.17015199198454,126.93521031221161
29170115,29170,오치동,eup-myeon-dong,35.191942798341586,126.91049774150633
29170116,29170,삼각동,eup-myeon-dong,35.20301339650211,126.90469073592402
29170117,29170,매곡동,eup-myeon-dong,35.19119134315552,126.88940249240723
29170118,29170,충효동,eup-myeon-dong,35.17718117074044,127.00719050301
29170119,29170,덕의동,eup-myeon-dong,35.17985289527829,126.98430625085743
29170120,29170,금곡동,eup-myeon-dong,35.14974927804887,126.99259936061107
29170121,29170,망월동,eup-myeon-dong,35.2014974469267,126.95327998268917
29170122,29170,청풍동,eup-myeon-dong,35.17154781693109,126.96095707136874
29170123,29170,화암동,eup-myeon-dong,35.1510257421799,126.96625839104661
29170124,29170,장등동,eup-myeon-dong,35.212513736607676,126.92757535228752
29170125,29170,운정동,eup-myeon-dong,35.225397644947186,126.94010960670039
29170126,29170,본촌동,eup-myeon-dong,35.22208417954026,126.88301451242708
29170127,29170,일곡동,eup-myeon-dong,35.20928379951272,126.8965739799572
29170128,29170,양산동,eup-myeon-dong,35.2023653765092,126.87937714513204
29170129,29170,연제동,eup-myeon-dong,35.20011842137338,126.86313862592021
29170130,29170,신용동,eup-myeon-dong,35.21417103341331,126.8621028736429
29170131,29170,용두동,eup-myeon-dong,35.22210683246435,126.87154190820311
29170132,29170,지야동,eup-myeon-dong,35.2332704808176,126.88260605950641
29170133,29170,태령동,eup-myeon-dong,35.24755932998004,126.92629379262854
29170134,29170,수곡동,eup-myeon-dong,35.24192111471403,126.92287513866944
29170135,29170,효령동,eup-myeon-dong,35.23733110846838,126.91545227214593
29170136,29170,용전동,eup-myeon-dong,35.241050655231355,126.89175093278178
29170137,29170,용강동,eup-myeon-dong,35.251557311982864,126.9068322359391
29170138,29170,생용동,eup-myeon-dong,35.22862054818557,126.8993869763107
29170139,29170,월출동,eup-myeon-dong,35.239924432240855,126.86956713558055
29170140,29170,대촌동,eup-myeon-dong,35.228584720190796,126.85740695114552
29170141,29170,오룡동,eup-myeon-dong,35.225514198620175,126.84791732894797
29200,29,광산구,si-gun-gu,35.16443709069282,126.75255599282227
29200101,29200,송정동,eup-myeon-dong,35.13537605923274,126.79860463977556
29200102,29200,도산동,eup-myeon-dong,35.1241420342457,126.79215385371617
29200103,29200,도호동,eup-myeon-dong,35.120094366423245,126.80552300316023
29200104,29200,신촌동,eup-myeon-dong,35.13424337870891,126.81429629949992
29200105,29200,서봉동,eup-myeon-dong,35.15701859469446,126.75381814547994
29200106,29200,운수동,eup-myeon-dong,35.162384916112046,126.77379336417589
29200107,29200,선암동,eup-myeon-dong,35.15097684612999,126.77621453037798
29200108,29200,소촌동,eup-myeon-dong,35.154407163740586,126.79602645484064
29200109,29200,우산동,eup-myeon-dong,35.15413598951024,126.8143616891607
29200110,29200,황룡동,eup-myeon-dong,35.11737980812292,126.78858780208874
29200111,29200,박호동,eup-myeon-dong,35.171548081662806,126.75168651664129
29200112,29200,비아동,eup-myeon-dong,35.22518370065865,126.82419684115303
29200113,29200,도천동,eup-myeon-dong,35.21258676620657,126.82102188830049
29200114,29200,수완동,eup-myeon-dong,35.198722951804115,126.82959333534657
29200115,29200,월계동,eup-myeon-dong,35.21326091532484,126.83767602071951
29200116,29200,쌍암동,eup-myeon-dong,35.21729617682468,126.84860900360982
29200117,29200,산월동,eup-myeon-dong,35.205082748974746,126.8489519600272
29200118,29200,신창동,eup-myeon-dong,35.19005639310019,126.84650176697218
29200119,29200,신가동,eup-myeon-dong,35.18028281049369,126.82727895946456
29200120,29200,운남동,eup-myeon-dong,35.16885042969171,126.82424899475839
29200121,29200,안청동,eup-myeon-dong,35.21511783008714,126.80418732981869
29200122,29200,진곡동,eup-myeon-dong,35.21245027391653,126.7863418338038
29200123,29200,장덕동,eup-myeon-dong,35.195168319502514,126.8090150989963
29200124,29200,흑석동,eup-myeon-dong,35.182474133415724,126.80819875355888
29200125,29200,하남동,eup-myeon-dong,35.18679721430931,126.79722111629246
29200126,29200,장수동,eup-myeon-dong,35.18317868914921,126.7821572579038
29200127,29200,산정동,eup-myeon-dong,35.17251548907507,126.7926073147338
29200128,29200,월곡동,eup-myeon-dong,35.17154592188099,126.81131683212675
29200129,29200,등임동,eup-myeon-dong,35.1845337592845,126.76207082017365
29200130,29200,산막동,eup-myeon-dong,35.19935668541589,126.76247955910372
29200131,29200,고룡동,eup-myeon-dong,35.19953850883165,126.77636200745837
29200132,29200,신룡동,eup-myeon-dong,35.2198655768473,126.77275614675861
29200133,29200,두정동,eup-myeon-dong,35.2231981488924,126.76048988786827
29200134,29200,임곡동,eup-myeon-dong,35.217597026865846,126.74786410277602
29200135,29200,광산동,eup-myeon-dong,35.24090668710934,126.7467286679717
29200136,29200,오산동,eup-myeon-dong,35.23585519359496,126.7301281884128
29200137,29200,사호동,eup-myeon-dong,35.21421932799535,126.72870713492814
29200138,29200,하산동,eup-myeon-dong,35.09855622545916,126.76497011410885
29200139,29200,유계동,eup-myeon-dong,35.095628957040404,126.78774535225018
29200140,29200,본덕동,eup-myeon-dong,35.0849719597239,126.77953828085543
29200141,29200,용봉동,eup-myeon-dong,35.076746561823775,126.77614239929433
29200142,29200,요기동,eup-myeon-dong,35.10513769822616,126.76166820401357
29200143,29200,복룡동,eup-myeon-dong,35.11299005433132,126.78209111520303
29200144,29200,송대동,eup-myeon-dong,35.10663358192929,126.7940712683205
29200145,29200,옥동,eup-myeon-dong,35.128062128112006,126.75872411256582
29200146,29200,월전동,eup-myeon-dong,35.12176397915402,126.77047736605894
29200147,29200,장록동,eup-myeon-dong,35.13377453463933,126.77534353612253
29200148,29200,송촌동,eup-myeon-dong,35.14121347089885,126.7767481745785
29200149,29200,지죽동,eup-myeon-dong,35.142399113696314,126.75638266372617
29200150,29200,용동,eup-myeon-dong,35.13486750668888,126.75050229089969
29200151,29200,용곡동,eup-myeon-dong,35.13048718624894,126.7420117192973
29200152,29200,지정동,eup-myeon-dong,35.13741092795141,126.71575252837573
29200153,29200,명화동,eup-myeon-dong,35.125468647561235,126.71944703680388
29200154,29200,동산동,eup-myeon-dong,35.12102265883196,126.71693247727666
29200155,29200,연산동,eup-myeon-dong,35.11330749837276,126.75287884382193
29200156,29200,도덕동,eup-myeon-dong,35.155186908898926,126.70146603543428
29200157,29200,송산동,eup-myeon-dong,35.16366618589082,126.72012750142548
29200158,29200,지평동,eup-myeon-dong,35.15083710401969,126.73110852347372
29200159,29200,오운동,eup-myeon-dong,35.15136154051599,126.69156704077636
29200160,29200,삼거동,eup-myeon-dong,35.15984374032598,126.67446375043806
29200161,29200,양동,eup-myeon-dong,35.15540326046353,126.6571736020671
29200162,29200,내산동,eup-myeon-dong,35.130352381102526,126.66093162660115
29200163,29200,대산동,eup-myeon-dong,35.13722215530126,126.67363923448912
29200164,29200,송학동,eup-myeon-dong,35.11563556445519,126.67627641642423
29200165,29200,신동,eup-myeon-dong,35.115567266856715,126.69438182046702
29200166,29200,삼도동,eup-myeon-dong,35.126255397329956,126.69046625287288
29200167,29200,남산동,eup-myeon-dong,35.17809605508275,126.72720837605164
29200168,29200,송치동,eup-myeon-dong,35.18032521022579,126.73441183322473
29200169,29200,산수동,eup-myeon-dong,35.186304281559416,126.74525585052842
29200170,29200,선동,eup-myeon-dong,35.19997379962402,126.74497684876937
29200171,29200,지산동,eup-myeon-dong,35.19546047818055,126.7348802485442
29200172,29200,왕동,eup-myeon-dong,35.19986536859512,126.71319086990098
29200173,29200,북산동,eup-myeon-dong,35.18067527036015,126.71153141755224
29200174,29200,명도동,eup-myeon-dong,35.181435637693404,126.69854832059704
29200175,29200,동호동,eup-myeon-dong,35.18018896229512,126.68719175699749
29200176,29200,덕림동,eup-myeon-dong,35.181455351013085,126.66827150911092
29200177,29200,양산동,eup-myeon-dong,35.19842978852389,126.68946045661008
29200178,29200,동림동,eup-myeon-dong,35.20765568483882,126.69175192484127
29200202,29200,오선동,eup-myeon-dong,35.20198105355114,126.79878579223279
30,,대전광역시,si-do,36.34166536667041,127.40316599388831
30110,30,동구,si-gun-gu,36.31737722278449,127.48666489168059
30110101,30110,원동,eup-myeon-dong,36.3272166636518,127.43416931429584
30110102,30110,인동,eup-myeon-dong,36.322603678796554,127.43823619458908
30110103,30110,효동,eup-myeon-dong,36.31592906314671,127.4407399724405
30110104,30110,천동,eup-myeon-dong,36.314160622482845,127.4455261934932
30110105,30110,가오동,eup-myeon-dong,36.30732470242701,127.4583208187158
30110106,30110,신흥동,eup-myeon-dong,36.32260987405358,127.44388245924432
30110107,30110,판암동,eup-myeon-dong,36.31257862017206,127.46406162724537
30110108,30110,삼정동,eup-myeon-dong,36.32189791313532,127.47522395901835
30110109,30110,용운동,eup-myeon-dong,36.33340083762836,127.4596308093382
30110110,30110,대동,eup-myeon-dong,36.32883002679904,127.4448331191075
30110111,30110,자양동,eup-myeon-dong,36.338362874838595,127.44891808366637
30110112,30110,신안동,eup-myeon-dong,36.329255131149466,127.43849423838694
30110113,30110,소제동,eup-myeon-dong,36.33431811260371,127.43831810136807
30110114,30110,가양동,eup-myeon-dong,36.345011457040954,127.45078543381959
30110115,30110,용전동,eup-myeon-dong,36.35413438772785,127.43449718592856
30110116,30110,성남동,eup-myeon-dong,36.34382286856851,127.43121374068652
30110117,30110,홍도동,eup-myeon-dong,36.348044374517215,127.42529461855727
30110118,30110,삼성동,eup-myeon-dong,36.338799829678294,127.42589743169191
30110119,30110,정동,eup-myeon-dong,36.33225363467685,127.43295333230864
30110120,30110,중동,eup-myeon-dong,36.33149843556481,127.429632950847
30110121,30110,추동,eup-myeon-dong,36.374604178950364,127.47254838648172
30110122,30110,비룡동,eup-myeon-dong,36.34558515641553,127.47471826401272
30110123,30110,주산동,eup-myeon-dong,36.35836786196406,127.47743955067669
30110124,30110,용계동,eup-myeon-dong,36.372275762103186,127.48777116990868
30110125,30110,마산동,eup-myeon-dong,36.388995823446166,127.49046777371852
30110126,30110,효평동,eup-myeon-dong,36.3960976653497,127.46918257418284
30110127,30110,직동,eup-myeon-dong,36.41638689224048,127.48755438540272
30110128,30110,세천동,eup-myeon-dong,36.32443426447572,127.49113580127926
30110129,30110,신상동,eup-myeon-dong,36.352978477331334,127.5024359975322
30110130,30110,신하동,eup-myeon-dong,36.36459338313506,127.49883146639041
30110131,30110,신촌동,eup-myeon-dong,36.37583583742327,127.51017411421545
30110132,30110,사성동,eup-myeon-dong,36.38536513617545,127.51586682944662
30110133,30110,내탑동,eup-myeon-dong,36.39941154877486,127.5138652420175
30110134,30110,오동,eup-myeon-dong,36.414273011669366,127.52458306149644
30110135,30110,주촌동,eup-myeon-dong,36.40576511986213,127.53995756394863
30110136,30110,낭월동,eup-myeon-dong,36.28718304873018,127.48064838881135
30110137,30110,대별동,eup-myeon-dong,36.282518957960235,127.45638454247953
30110138,30110,이사동,eup-myeon-dong,36.28334865422788,127.44166623539348
30110139,30110,대성동,eup-myeon-dong,36.295110093741926,127.468203169877
30110140,30110,장척동,eup-myeon-dong,36.253032444402706,127.44333852093402
30110141,30110,소호동,eup-myeon-dong,36.259830713449375,127.44726069961341
30110142,30110,구도동,eup-myeon-dong,36.26608653827669,127.47370973337108
30110143,30110,삼괴동,eup-myeon-dong,36.24753609235237,127.46750785169826
30110144,30110,상소동,eup-myeon-dong,36.22437771135742,127.45779932756943
30110145,30110,하소동,eup-myeon-dong,36.213562122336846,127.43935733862713
30140,30,중구,si-gun-gu,36.27837911687426,127.4132955106574
30140101,30140,은행동,eup-myeon-dong,36.32968155137242,127.42679491027536
30140102,30140,선화동,eup-myeon-dong,36.3315139442433,127.41958167824401
30140103,30140,목동,eup-myeon-dong,36.33295861768943,127.4088169398686
30140104,30140,중촌동,eup-myeon-dong,36.34212832492666,127.41018590225161
30140105,30140,대흥동,eup-myeon-dong,36.32305002542337,127.42492453475491
30140106,30140,문창동,eup-myeon-dong,36.317917296286836,127.43539945169994
30140107,30140,석교동,eup-myeon-dong,36.306375994505856,127.43845347897462
30140108,30140,호동,eup-myeon-dong,36.29993847307198,127.43704610615484
30140109,30140,옥계동,eup-myeon-dong,36.298504753467626,127.45286192834732
30140110,30140,대사동,eup-myeon-dong,36.31050059383384,127.42266612209585
30140111,30140,부사동,eup-myeon-dong,36.31155877595392,127.43225905399129
30140112,30140,용두동,eup-myeon-dong,36.33037679203753,127.40740695780235
30140113,30140,오류동,eup-myeon-dong,36.32639734475444,127.40615006049194
30140114,30140,태평동,eup-myeon-dong,36.32510840475403,127.3933537438653
30140115,30140,유천동,eup-myeon-dong,36.31747219875042,127.39432099061915
30140116,30140,문화동,eup-myeon-dong,36.30915041258018,127.40894862286581
30140117,30140,산성동,eup-myeon-dong,36.307042004832994,127.39045658712831
30140118,30140,사정동,eup-myeon-dong,36.29347805296035,127.39815450595862
30140119,30140,안영동,eup-myeon-dong,36.28151616526475,127.37793076906932
30140120,30140,무수동,eup-myeon-dong,36.279784604757836,127.41220810731232
30140121,30140,구완동,eup-myeon-dong,36.27748071842675,127.42782025605037
30140122,30140,침산동,eup-myeon-dong,36.27610305853341,127.39054763300561
30140123,30140,목달동,eup-myeon-dong,36.26383261295244,127.41351508683314
30140124,30140,정생동,eup-myeon-dong,36.24981615915982,127.40336763075712
30140125,30140,어남동,eup-myeon-dong,36.22206783687517,127.41362287508343
30140126,30140,금동,eup-myeon-dong,36.240848594443754,127.42738888793012
30170,30,서구,si-gun-gu,36.27755764075399,127.34182564944595
30170101,30170,복수동,eup-myeon-dong,36.30204696082767,127.37746052420593
30170102,30170,변동,eup-myeon-dong,36.32808421907984,127.37619822373813
30170103,30170,도마동,eup-myeon-dong,36.32024717204973,127.37273263319976
30170104,30170,정림동,eup-myeon-dong,36.30410108678605,127.36401045356261
30170105,30170,용문동,eup-myeon-dong,36.33886228600525,127.39536172958162
30170106,30170,탄방동,eup-myeon-dong,36.34366572025138,127.39067688222025
30170108,30170,괴정동,eup-myeon-dong,36.33811512535617,127.37983178536405
30170109,30170,가장동,eup-myeon-dong,36.331651827881075,127.38709180261695
30170110,30170,내동,eup-myeon-dong,36.334351030230835,127.37298873256428
30170111,30170,갈마동,eup-myeon-dong,36.34840941278978,127.37012845124332
30170112,30170,둔산동,eup-myeon-dong,36.35476760133685,127.38894005147853
30170113,30170,월평동,eup-myeon-dong,36.346367698076946,127.36430069609229
30170114,30170,가수원동,eup-myeon-dong,36.2973630949989,127.35398128544534
30170115,30170,도안동,eup-myeon-dong,36.318262208656705,127.34850670427181
30170116,30170,관저동,eup-myeon-dong,36.2963030194053,127.33129394123472
30170117,30170,흑석동,eup-myeon-dong,36.26596496836325,127.34533477176171
30170118,30170,매노동,eup-myeon-dong,36.24187356479494,127.33467887125457
30170119,30170,산직동,eup-myeon-dong,36.23973976684584,127.34716737929375
30170120,30170,장안동,eup-myeon-dong,36.209854406915376,127.34585352211784
30170121,30170,평촌동,eup-myeon-dong,36.23801674477417,127.31124242676698
30170122,30170,오동,eup-myeon-dong,36.21836730777346,127.3171007726242
30170123,30170,우명동,eup-myeon-dong,36.23890154959445,127.29137404276366
30170124,30170,원정동,eup-myeon-dong,36.25491117454335,127.29832024872815
30170125,30170,용촌동,eup-myeon-dong,36.252220865969626,127.31830125032849
30170126,30170,봉곡동,eup-myeon-dong,36.26906094208772,127.3219297432208
30170127,30170,괴곡동,eup-myeon-dong,36.28295260667722,127.35214816316206
30170128,30170,만년동,eup-myeon-dong,36.36837557865158,127.38224314631015
30200,30,유성구,si-gun-gu,36.38219703247202,127.3334588983017
30200101,30200,원내동,eup-myeon-dong,36.29783682636588,127.32018548658749
30200102,30200,교촌동,eup-myeon-dong,36.30668182818684,127.31089715682106
30200103,30200,대정동,eup-myeon-dong,36.316058965642775,127.31626886956553
30200104,30200,용계동,eup-myeon-dong,36.325892099887625,127.32408254319262
30200105,30200,학하동,eup-myeon-dong,36.335232650369974,127.31492562716443
30200106,30200,계산동,eup-myeon-dong,36.33400355304799,127.2958201944075
30200107,30200,성북동,eup-myeon-dong,36.30901448306385,127.28805976220973
30200108,30200,세동,eup-myeon-dong,36.30301084719399,127.27290262961236
30200109,30200,송정동,eup-myeon-dong,36.288786336669666,127.259795297187
30200110,30200,방동,eup-myeon-dong,36.2794426011784,127.29107055020563
